stop_id,stop_code,stop_name,stop_desc,stop_lat,stop_lon,zone_id,stop_url,location_type,parent_station,wheelchair_boarding
1001,1001,"East L.A. College",,34.039463,-118.145211,,,0,,0
1002,1002,"Whittwood Mall 2nd stop",,33.944394,-117.995832,,,0,,0
1003,1003,"Atlantic/Cesar Chavez",,34.037396,-118.146826,,,0,,0
1004,1004,"Whittier/ Santa Gertrudes",,33.944945,-117.994749,,,0,,0
1005,1005,"Atlantic / Pomona",,34.032938,-118.153208,,,0,,0
1006,1006,"Whittier/Scott",,33.946543,-117.999061,,,0,,0
1007,1007,"Atlantic/4th",,34.029632,-118.154591,,,0,,0
1008,1008,"Whittier/Colima",,33.948803,-118.006099,,,0,,0
1009,1009,"Atlantic/Eagle",,34.027325,-118.155311,,,0,,0
1010,1010,"Whittier/Mills",,33.950667,-118.010166,,,0,,0
10100,10100,"Whittier/Garfield",,34.014896,-118.130514,,,0,,0
10101,10101,"Painter/Mar Vista",,33.973779,-118.032791,,,0,,0
10102,10102,"Whittier/Via Del Or",,34.015348,-118.132873,,,0,,0
10103,10103,"Painter/Walnut",,33.971975,-118.032793,,,0,,0
10104,10104,"Whittier/Saybrook",,34.016073,-118.136306,,,0,,0
10105,10105,"Painter/La Cuarta",,33.968849,-118.032577,,,0,,0
10106,10106,"Whittier/Findlay",,34.016726,-118.139424,,,0,,0
10107,10107,"Painter/Russell",,33.965746,-118.032788,,,0,,0
10108,10108,"Whittier/Leonard",,34.017598,-118.143475,,,0,,0
10109,10109,"Whittier/Painter",,33.962836,-118.03248,,,0,,0
1011,1011,"Atlantic/6th",,34.02472,-118.156098,,,0,,0
10110,10110,"Whittier/Keenan",,34.018136,-118.14546,,,0,,0
10111,10111,"Whittier/Laurel",,33.96116,-118.029686,,,0,,0
10112,10112,"Whittier/Gerhart",,34.018485,-118.147541,,,0,,0
10113,10113,"Whittier/Jacmar",,33.959078,-118.02589,,,0,,0
10114,10114,"Whittier/Hoeffner",,34.019107,-118.150588,,,0,,0
10115,10115,"Whittier/Strub",,33.958068,-118.02418,,,0,,0
10116,10116,"Whittier/Goodrich",,34.019685,-118.153388,,,0,,0
10117,10117,"Whittier/Ocean view",,33.955548,-118.019556,,,0,,0
10118,10118,"Whittier/Atlantic",,34.020474,-118.157026,,,0,,0
10119,10119,"Whittier/Gunn",,33.953646,-118.016087,,,0,,0
1012,1012,"Whittier/Gunn",,33.95387,-118.01614,,,0,,0
10120,10120,"Atlantic/Hubbard",,34.022479,-118.156549,,,0,,0
10121,10121,"Whittier/Mills",,33.950745,-118.010869,,,0,,0
10122,10122,"Atlantic/6th",,34.025152,-118.155761,,,0,,0
10123,10123,"Whittier / Colima",,33.948907,-118.0073,,,0,,0
10124,10124,"Atlantic/Eagle",,34.027004,-118.155187,,,0,,0
10125,10125,"Whittier/Scott",,33.946645,-118.000132,,,0,,0
10126,10126,"Atlantic/4th",,34.029582,-118.15443,,,0,,0
10127,10127,"Whittwood Mall",,33.944961,-117.998412,,,0,,0
10128,10128,"Atlantic/Pomona",,34.032964,-118.152852,,,0,,0
1013,1013,"Atlantic/Hubbard",,34.022371,-118.156791,,,0,,0
10130,10130,"Atlantic/Riggin",,34.037686,-118.14601,,,0,,0
10131,10131,"Cesar Chavez/Collegian",,34.03854,-118.14729,,,0,,0
10132,10132,"Cesar Chavez/Schoolside",,34.0397538826,-118.1492374344,,,0,,0
10133,10133,"Cesar Chavez/Westcott",,34.040734437,-118.1532033528,,,0,,0
10134,10134,"Cesar Chavez/Vancouver",,34.0406944337,-118.1570107288,,,0,,0
10135,10135,"Cesar Chavez / Belvedere Park",,34.0407122177,-118.1587580466,,,0,,0
10136,10136,"Cesar Chavez/Mednik",,34.0406766579,-118.1623260638,,,0,,0
10137,10137,"Cesar Chavez/Dangler",,34.0406644353,-118.1646473178,,,0,,0
10138,10138,"Cesar Chavez/McDonnell",,34.040683329,-118.16683,,,0,,0
10139,10139,"Cesar Chavez/Ford",,34.0406672168,-118.1689670264,,,0,,0
1014,1014,"Whittier/Ocean View",,33.955765,-118.019492,,,0,,0
10140,10140,"Cesar Chavez/Humphreys",,34.0406627717,-118.1712146939,,,0,,0
10141,10141,"Eastern/Hammel",,34.0422294856,-118.1735306706,,,0,,0
10142,10142,"Eastern/Floral",,34.0444333494,-118.17351,,,0,,0
10143,10143,"Eastern/Sheriff Rd",,34.05102,-118.17475,,,0,,0
10144,10144,"Eastern/Hauck",,34.05386,-118.17265,,,0,,0
10145,10145,"Eastern/City Terrace",,34.05778,-118.1721,,,0,,0
10146,10146,"Ramona/Eastern",,34.0593700437,-118.1726837302,,,0,,0
10147,10147,"Cal State Los Angeles",,34.06319,-118.16817,,,0,,0
10148,10148,"Cal State Los Angeles",,34.0631122301,-118.168773497,,,0,,0
10149,10149,"Ramona/Campus",,34.0591100285,-118.1727804534,,,0,,0
1015,1015,"Whittier/Atlantic",,34.020123,-118.156516,,,0,,0
10150,10150,"Eastern/City Terrace",,34.05776,-118.17227,,,0,,0
10152,10152,"Eastern/Sheriff Rd",,34.05155,-118.17431,,,0,,0
10153,10153,"Eastern/Marianna",,34.04736,-118.17527,,,0,,0
10154,10154,"Eastern/Floral",,34.04386,-118.17372,,,0,,0
10155,10155,"Eastern/Hammel",,34.04228,-118.17367,,,0,,0
10156,10156,"Cesar Chavez/Eastern",,34.0405500199,-118.1732914577,,,0,,0
10157,10157,"Cesar Chavez/Humphreys",,34.0405333488,-118.1715426822,,,0,,0
10158,10158,"Cesar Chavez/Ford",,34.04045,-118.16885,,,0,,0
10159,10159,"Cesar Chavez/McDonnell",,34.04046,-118.16667,,,0,,0
1016,1016,"Whittier/Strub",,33.958556,-118.024562,,,0,,0
10160,10160,"Cesar Chavez/Dangler",,34.0405766844,-118.16498,,,0,,0
10161,10161,"Cesar Chavez/Mednik",,34.0405922425,-118.1622053644,,,0,,0
10162,10162,"Belvedere Park",,34.0406011295,-118.158566589,,,0,,0
10163,10163,"Cesar Chavez/Vancouver",,34.0406255747,-118.1563873178,,,0,,0
10164,10164,"Cesar Chavez/Westcott",,34.0406366843,-118.15354,,,0,,0
10165,10165,"Cesar Chavez/Schoolside",,34.0401500154,-118.1505248981,,,0,,0
10166,10166,"ELAC Frontage",,34.0397111271,-118.1494309914,,,0,,0
10167,10167,"Cesar Chavez/Collegian",,34.0383872313,-118.1473222159,,,0,,0
1017,1017,"Whittier/Goodrich",,34.019492,-118.153142,,,0,,0
1018,1018,"Whittier/Michigan",,33.959833,-118.026866,,,0,,0
1019,1019,"Whittier/Hoefner",,34.018943,-118.150556,,,0,,0
1020,1020,"Whittier/Laurel",,33.960984,-118.02896,,,0,,0
1021,1021,"Whittier/Gerhart",,34.018281,-118.147475,,,0,,0
1022,1022,"Whittier/Central",,33.962251,-118.03108,,,0,,0
1023,1023,"Whittier/Keenan",,34.017834,-118.145407,,,0,,0
1024,1024,"Painter/Ramona",,33.964222,-118.032611,,,0,,0
1025,1025,"Whittier/Leonard",,34.017294,-118.142895,,,0,,0
1026,1026,"Painter/Russell",,33.965711,-118.032617,,,0,,0
1027,1027,"Whittier/Findlay",,34.016458,-118.138845,,,0,,0
1028,1028,"Painter/La Cuarta",,33.967846,-118.032624,,,0,,0
1029,1029,"Whittier/Saybrook",,34.015836,-118.136043,,,0,,0
1030,1030,"Painter/Walnut",,33.971184,-118.032596,,,0,,0
1031,1031,"Whittier/Via Del Oro",,34.015106,-118.132589,,,0,,0
1032,1032,"Painter/Mar Vista",,33.973253,-118.032622,,,0,,0
1033,1033,"Whittier/Garfield",,34.014523,-118.129676,,,0,,0
1034,1034,"Painter/Penn",,33.975037,-118.032611,,,0,,0
1035,1035,"Whittier/Concourse",,34.013776,-118.126196,,,0,,0
1036,1036,"Painter/Wardman",,33.977081,-118.032604,,,0,,0
1037,1037,"Whittier/21st",,34.01311,-118.122982,,,0,,0
1038,1038,"Philadelphia / Painter",,33.979124,-118.033015,,,0,,0
1039,1039,"Whittier/19th",,34.012691,-118.121084,,,0,,0
1040,1040,"Philadelphia/Washington",,33.979158,-118.034869,,,0,,0
1041,1041,"Whittier/Maple",,34.011724,-118.117162,,,0,,0
1042,1042,"Philadelphia/Greenleaf",,33.979173,-118.037764,,,0,,0
1043,1043,"Whittier/Taylor",,34.011287,-118.114573,,,0,,0
1044,1044,"Philadelphia/Comstock",,33.979165,-118.038969,,,0,,0
1045,1045,"Whittier/Greenwood",,34.010925,-118.112609,,,0,,0
1046,1046,"Philadelphia/Gregory",,33.979168,-118.046358,,,0,,0
1047,1047,"Whittier / Montebello",,34.009959,-118.107891,,,0,,0
1048,1048,"Philadelphia/Whittier",,33.979151,-118.049017,,,0,,0
1049,1049,"Whittier/6th",,34.009501,-118.105789,,,0,,0
1050,1050,"Whittier/Sorenson",,33.981122,-118.050893,,,0,,0
1051,1051,"Whittier/4th",,34.0091227974,-118.1042087632,,,0,,0
1052,1052,"Whittier/Hadley",,33.982594,-118.053083,,,0,,0
1053,1053,"Whittier/2nd",,34.008704,-118.102023,,,0,,0
1054,1054,"Whittier/Western",,33.984073,-118.05528,,,0,,0
1055,1055,"Whittier/Myrtle",,34.006032,-118.094916,,,0,,0
1056,1056,"Whittier/Broadway",,33.985568,-118.05756,,,0,,0
1057,1057,"Whittier/Paramount",,34.003515,-118.089196,,,0,,0
1058,1058,"Whittier/GlenGarry",,33.987794,-118.060763,,,0,,0
1059,1059,"Whittier/Columbia",,34.002357,-118.086701,,,0,,0
1060,1060,"Whittier/Norwalk",,33.990229,-118.064342,,,0,,0
1061,1061,"Whittier / Rosemead",,34.0011270208,-118.0835442184,,,0,,0
1062,1062,"Whittier/Redman",,33.991927,-118.066807,,,0,,0
1063,1063,"Whittier/Lindsey",,34.00014,-118.081549,,,0,,0
1064,1064,"Whittier/Esperanza",,33.994307,-118.070426,,,0,,0
1066,1066,"Whittier/Millux",,33.997625,-118.074952,,,0,,0
1067,1067,"Whittier/Passons",,33.998381,-118.077696,,,0,,0
1068,1068,"Whittier/Passons",,33.999027,-118.078179,,,0,,0
1069,1069,"Whittier/Millux",,33.997587,-118.075464,,,0,,0
1071,1071,"Whittier/Pioneer",,33.993952,-118.07017,,,0,,0
1072,1072,"Whittier/Lindsey",,34.000179,-118.08092,,,0,,0
1073,1073,"Whittier/Redman",,33.991912,-118.067221,,,0,,0
1074,1074,"Whittier/Rosemead",,34.001795,-118.084551,,,0,,0
1075,1075,"Whittier/Norwalk",,33.989615,-118.063912,,,0,,0
1076,1076,"Whittier/Columbia",,34.002479,-118.086158,,,0,,0
1077,1077,"Whittier/GlenGarry",,33.987567,-118.060838,,,0,,0
1078,1078,"Whittier/Paramount",,34.003373,-118.088335,,,0,,0
1079,1079,"Whittier/Broadway",,33.98548,-118.057604,,,0,,0
1080,1080,"Whittier/Myrtle",,34.006222,-118.094987,,,0,,0
1081,1081,"Whittier/Western",,33.984168,-118.055745,,,0,,0
1082,1082,"Whittier/4th",,34.00932,-118.104342,,,0,,0
1083,1083,"Whittier/Hadley",,33.982931,-118.053789,,,0,,0
1084,1084,"Whittier/6th",,34.009741,-118.106379,,,0,,0
1085,1085,"Whittier/Sorensen",,33.9811,-118.051433,,,0,,0
1086,1086,"Whittier/Montebello",,34.010268,-118.108738,,,0,,0
1087,1087,"Whittier/Philadelphia",,33.979097,-118.048693,,,0,,0
1088,1088,"Whittier/Greenwood",,34.010854,-118.111337,,,0,,0
1089,1089,"Philadelphia/Gregory",,33.979077,-118.046317,,,0,,0
1090,1090,"Whittier/Taylor",,34.011462,-118.114348,,,0,,0
1091,1091,"Philadelphia/Milton",,33.979026,-118.039944,,,0,,0
1092,1092,"Whittier/Maple",,34.012049,-118.1171,,,0,,0
1093,1093,"Philadelphia/Washington",,33.979034,-118.034686,,,0,,0
1094,1094,"Whittier/Vail",,34.012395,-118.118779,,,0,,0
1095,1095,"Philadelphia/Painter",,33.979061,-118.033182,,,0,,0
1096,1096,"Whittier/21st",,34.013364,-118.123289,,,0,,0
1097,1097,"Painter/Wardman",,33.977459,-118.032798,,,0,,0
1098,1098,"Whittier/Concourse",,34.014165,-118.127133,,,0,,0
1099,1099,"Painter/Penn",,33.975124,-118.032632,,,0,,0
2000,2000,"South Pine St / East Live Oak",,34.101934,-118.092191,,,0,,0
2001,2001,"Telegraph/Gage",,33.976822,-118.124346,,,0,,0
2002,2002,"San Gabriel/Las Tunas",,34.10331,-118.091366,,,0,,0
2003,2003,"Greenwood/Telegraph",,33.980605,-118.127812,,,0,,0
2004,2004,"San Gabriel/Broadway",,34.098777,-118.091097,,,0,,0
2005,2005,"Greenwood/Union",,33.981531,-118.127278,,,0,,0
2007,2007,"Greenwood/Elm",,33.986728,-118.124158,,,0,,0
2008,2008,"San Gabriel/Pearl",,34.092752,-118.091009,,,0,,0
2009,2009,"Greenwood/Oakwood",,33.988781,-118.123001,,,0,,0
2010,2010,"San Gabriel/Mission",,34.091366,-118.091089,,,0,,0
20101,20101,"San Gabriel/Mission",,34.090577,-118.090758,,,0,,0
20103,20103,"San Gabriel/Pearl",,34.092896,-118.090783,,,0,,0
2011,2011,"Greenwood/Date",,33.990875,-118.121757,,,0,,0
2012,2012,"San Gabriel/Central",,34.087866,-118.090923,,,0,,0
2013,2013,"Greenwood/Frankel",,33.993031,-118.120501,,,0,,0
2014,2014,"San Gabriel/Chestnut",,34.085995,-118.090907,,,0,,0
2015,2015,"Greenwood/Washington",,33.994922,-118.119395,,,0,,0
2016,2016,"San Gabriel/Scott",,34.082639,-118.09085,,,0,,0
2017,2017,"Greenwood/School",,33.997127,-118.118092,,,0,,0
2018,2018,"San Gabriel/Valley",,34.079881,-118.090839,,,0,,0
2019,2019,"Greenwood/Beach",,33.99973,-118.11659,,,0,,0
2020,2020,"San Gabriel/Marshall",,34.075459,-118.090786,,,0,,0
2021,2021,"Greenwood/Carmelita",,34.001976,-118.11522,,,0,,0
2022,2022,"San Gabriel/Hellman",,34.069649,-118.090694,,,0,,0
2024,2024,"San Gabriel/Emerson",,34.066444,-118.09068,,,0,,0
2026,2026,"San Gabriel/Garvey Near Side",,34.062937,-118.090683,,,0,,0
2029,2029,"Montebello/Whittier",,34.010523,-118.107986,,,0,,0
2030,2030,"San Gabriel/Garvaila",,34.057923,-118.090685,,,0,,0
2031,2031,"Montebello/Cleveland",,34.012015,-118.107258,,,0,,0
2032,2032,"San Gabriel/Klingerman",,34.055471,-118.090649,,,0,,0
2033,2033,"Montebello/Madison",,34.013362,-118.10685,,,0,,0
2034,2034,"San Gabriel/La Merced",,34.053392,-118.090658,,,0,,0
2035,2035,"Montebello Mart",,34.01691,-118.105878,,,0,,0
2036,2036,"San Gabriel/Potrero Grande",,34.051491,-118.090647,,,0,,0
2037,2037,"Montebello/Victoria",,34.01861,-118.105499,,,0,,0
2038,2038,"San Gabriel/Sierra Bonita",,34.04961,-118.09063,,,0,,0
2039,2039,"Montebello/Lincoln",,34.020299,-118.104992,,,0,,0
2040,2040,"San Gabriel/Celito",,34.047305,-118.09061,,,0,,0
2041,2041,"Montebello/La Merced",,34.022813,-118.104121,,,0,,0
2042,2042,"San Gabriel/Grandview",,34.044198,-118.089783,,,0,,0
2043,2043,"Montebello/Jefferson",,34.025956,-118.101706,,,0,,0
2044,2044,"San Gabriel/Delta",,34.042537,-118.086019,,,0,,0
2045,2045,"Montebello/Liberty",,34.029447,-118.101332,,,0,,0
2046,2046,"San Gabriel/Rose Glen",,34.041856,-118.08439,,,0,,0
2047,2047,"Montebello/Costco",,34.032151,-118.096452,,,0,,0
2048,2048,"Montebello/Robinsons May",,34.037037,-118.080956,,,0,,0
2049,2049,"Montebello/Town Square",,34.032308,-118.093701,,,0,,0
2050,2050,"The Shops at Montebello",,34.034544,-118.085096,,,0,,0
2051,2051,"Town Ctr Dr/Paramount",,34.035414,-118.091609,,,0,,0
2052,2052,"Montebello/Town Square",,34.032496,-118.093913,,,0,,0
2053,2053,"Town Center/Kaiser",,34.036422,-118.08893,,,0,,0
2054,2054,"Montebello/Costco",,34.032298,-118.096668,,,0,,0
2055,2055,"The Shops at Monetebllo",,34.0369,-118.08615,,,0,,0
2056,2056,"Montebello/Liberty",,34.029902,-118.101068,,,0,,0
2057,2057,"Town Center/ Montebello Blvd",,34.037787,-118.0821,,,0,,0
2058,2058,"Montebello/Jefferson",,34.026394,-118.101939,,,0,,0
2059,2059,"San Gabriel/Walnut Grove",,34.041296,-118.082495,,,0,,0
2060,2060,"Montebello/La Merced",,34.022663,-118.10442,,,0,,0
2061,2061,"San Gabriel/E.Village",,34.041932,-118.084042,,,0,,0
2062,2062,"Montebello Mart",,34.019413,-118.105527,,,0,,0
2063,2063,"San Gabriel/Delta",,34.042959,-118.086547,,,0,,0
2064,2064,"Montebello/Beverly",,34.017594,-118.106059,,,0,,0
2065,2065,"San Gabriel/Hill",,34.044832,-118.090335,,,0,,0
2066,2066,"Montebello/Harding",,34.015438,-118.106474,,,0,,0
2067,2067,"San Gabriel/Celito",,34.047716,-118.090309,,,0,,0
2068,2068,"Montebello/Madison",,34.013793,-118.106971,,,0,,0
2069,2069,"San Gabriel/Sierra Bonita",,34.049338,-118.090414,,,0,,0
2070,2070,"Montebello/Cleveland",,34.011464,-118.107604,,,0,,0
2071,2071,"San Gabriel/Rush",,34.051544,-118.090415,,,0,,0
2072,2072,"Montebello/Whittier",,34.010433,-118.108252,,,0,,0
2073,2073,"San Gabriel/Keim",,34.052556,-118.090439,,,0,,0
2075,2075,"San Gabriel/Klingerman",,34.055509,-118.090468,,,0,,0
2077,2077,"San Gabriel/Garvalia",,34.058012,-118.090485,,,0,,0
2080,2080,"Greenwood/Carmelita",,34.001641,-118.115613,,,0,,0
2082,2082,"Greenwood/Beach",,33.999058,-118.117121,,,0,,0
2083,2083,"San Gabriel/Garvey North Bound",,34.063001,-118.090406,,,0,,0
2084,2084,"Greenwood/School",,33.997083,-118.118257,,,0,,0
2085,2085,"San Gabriel/Whitmore",,34.065057,-118.090486,,,0,,0
2086,2086,"Greenwood/Washington",,33.995434,-118.119225,,,0,,0
2087,2087,"San Gabriel/Dorothy",,34.067549,-118.090519,,,0,,0
2088,2088,"Greenwood/Frankel",,33.993244,-118.120558,,,0,,0
2089,2089,"San Gabriel/Hellman",,34.069745,-118.090559,,,0,,0
2090,2090,"Greenwood/Date",,33.991203,-118.121756,,,0,,0
2091,2091,"San Gabriel/Marshall",,34.074713,-118.090644,,,0,,0
2092,2092,"Greenwood/Oakwood",,33.989129,-118.123016,,,0,,0
2093,2093,"San Gabriel/Valley",,34.080537,-118.090655,,,0,,0
2094,2094,"Greenwood/Elm",,33.986785,-118.12439,,,0,,0
2095,2095,"San Gabriel/Scott",,34.082932,-118.09069,,,0,,0
2096,2096,"Greenwood/Union",,33.983138,-118.1267,,,0,,0
2097,2097,"San Gabriel/Chestnut",,34.086433,-118.090723,,,0,,0
2098,2098,"Union/Gage",,33.979303,-118.123092,,,0,,0
2099,2099,"San Gabriel/Central",,34.087869,-118.090724,,,0,,0
3001,3001,"FirestonePL/Garfield",,33.950856,-118.16522,,,0,,0
3002,3002,"Huntington/Story",,34.1089911951,-118.1309596908,,,0,,0
3003,3003,"Garfield/Eastern",,33.953818,-118.163309,,,0,,0
3004,3004,"Huntington/Granada",,34.11098,-118.128429,,,0,,0
3005,3005,"Garfield/Fostoria",,33.955943,-118.16068,,,0,,0
3006,3006,"Huntington/ El Molino",,34.1098278053,-118.1301536736,,,0,,0
3007,3007,"Garfield/Muller",,33.957733,-118.1587,,,0,,0
3009,3009,"Garfield/Park Lane",,33.960037,-118.156095,,,0,,0
3010,3010,"Garfield/Pine",,34.104293,-118.13365,,,0,,0
30100,30100,"Garfield/Elm",,33.991564,-118.134837,,,0,,0
30101,30101,"Garfield/Park",,34.088977,-118.122984,,,0,,0
30102,30102,"Garfield/Telegraph",,33.98824,-118.136921,,,0,,0
30103,30103,"Garfield/Beacon",,34.091447,-118.124147,,,0,,0
30104,30104,"Garfield/Bandini",,33.986379,-118.138978,,,0,,0
30105,30105,"Garfield/Commonwealth",,34.092493,-118.124849,,,0,,0
30106,30106,"Garfield/Slauson",,33.982593,-118.141535,,,0,,0
30108,30108,"Garfield/Slauson-RR",,33.979203,-118.143679,,,0,,0
30109,30109,"Garfield/Main",,34.095384,-118.126904,,,0,,0
3011,3011,"Garfield/Clara",,33.962037,-118.153583,,,0,,0
30110,30110,"Garfield/Randolph",,33.977113,-118.144995,,,0,,0
30111,30111,"Garfield/Woodward",,34.09802,-118.128735,,,0,,0
30112,30112,"Garfield/Gage",,33.973553,-118.147238,,,0,,0
30113,30113,"Garfield/Grand",,34.099317,-118.129659,,,0,,0
30114,30114,"Garfield/Loveland",,33.970339,-118.149034,,,0,,0
30115,30115,"Garfield/Alhambra",,34.10104,-118.130901,,,0,,0
30116,30116,"Garfield/Florence",,33.965754,-118.151535,,,0,,0
30117,30117,"Garfield/McLean",,34.102381,-118.131882,,,0,,0
30118,30118,"Garfield/Clara",,33.962213,-118.153935,,,0,,0
30119,30119,"Garfield/Pine",,34.104522,-118.133592,,,0,,0
3012,3012,"Garfield/McLean",,34.10209,-118.131771,,,0,,0
30120,30120,"Garfield/Ira",,33.960009,-118.156423,,,0,,0
30121,30121,"Garfield/Atlantic",,34.105533,-118.134427,,,0,,0
30122,30122,"Garfield/Cecilia",,33.956923,-118.15998,,,0,,0
30123,30123,"Huntington/Stoneman",,34.106759,-118.134459,,,0,,0
30124,30124,"Garfield/Fostoria",,33.955921,-118.161161,,,0,,0
30125,30125,"Huntington/Monterey",,34.1080027288,-118.1324995043,,,0,,0
30126,30126,"FirestoneBL/Garfield",,33.949426,-118.165724,,,0,,0
3013,3013,"Garfield/Florence",,33.965011,-118.151649,,,0,,0
3014,3014,"Garfield/Alhambra",,34.100413,-118.130612,,,0,,0
3015,3015,"Garfield/Loveland",,33.969844,-118.149017,,,0,,0
3016,3016,"Garfield/Grand",,34.098916,-118.129572,,,0,,0
3017,3017,"Garfield/Gage",,33.973834,-118.146638,,,0,,0
3018,3018,"Garfield/Woodward",,34.097394,-118.12852,,,0,,0
3019,3019,"Garfield/Randolph",,33.977609,-118.144358,,,0,,0
3020,3020,"Garfield/Main",,34.094884,-118.126721,,,0,,0
3021,3021,"Garfield/Randolph-Slauson",,33.979033,-118.143468,,,0,,0
3022,3022,"Garfield/Bay State",,34.092975,-118.125431,,,0,,0
3023,3023,"Garfield/Slauson",,33.982469,-118.141304,,,0,,0
3024,3024,"Garfield/Commonweatlh",,34.091924,-118.124687,,,0,,0
3025,3025,"Garfield/Bandini",,33.986436,-118.138522,,,0,,0
3026,3026,"Garfield/Beacon",,34.090992,-118.124015,,,0,,0
3027,3027,"Garfield/Telegraph",,33.988012,-118.136902,,,0,,0
3028,3028,"Garfield/Park",,34.088635,-118.12319,,,0,,0
3029,3029,"Garfield/Elm",,33.991379,-118.134617,,,0,,0
3030,3030,"Garfield/Los Higos",,34.085399,-118.123185,,,0,,0
3031,3031,"Garfield/Yates",,33.994118,-118.134557,,,0,,0
3032,3032,"Garfield/San Marino",,34.082494,-118.123184,,,0,,0
3033,3033,"Garfield/Malt",,33.996627,-118.134486,,,0,,0
3034,3034,"Garfield/Shorb",,34.080525,-118.123143,,,0,,0
3035,3035,"Garfield/Washington",,34.000632,-118.132605,,,0,,0
3036,3036,"Garfield/Valley",,34.078897,-118.123153,,,0,,0
3037,3037,"Garfield/Flotilla",,34.006006,-118.131263,,,0,,0
3038,3038,"Garfield/Norwood",,34.075519,-118.123085,,,0,,0
3039,3039,"Garfield/Ferguson",,34.008592,-118.131288,,,0,,0
3040,3040,"Garfield/Glendon",,34.07427,-118.123044,,,0,,0
3041,3041,"Garfield/Olympic",,34.011749,-118.130701,,,0,,0
3042,3042,"Garfield/Hellman",,34.069461,-118.123011,,,0,,0
3043,3043,"Garfield/Allston",,34.013612,-118.130238,,,0,,0
3044,3044,"Garfield/GarfieldMedCtr",,34.068002,-118.122985,,,0,,0
3045,3045,"Garfield/Whittier",,34.014824,-118.129825,,,0,,0
3046,3046,"Garfield/Emerson",,34.065945,-118.122945,,,0,,0
3047,3047,"Garfield/Madison",,34.018077,-118.130398,,,0,,0
3048,3048,"Garfield/Garvey",,34.061957,-118.122909,,,0,,0
3049,3049,"Garfield/Hay",,34.019499,-118.132842,,,0,,0
3050,3050,"Garfield/Newmark",,34.059539,-118.122876,,,0,,0
3051,3051,"Garfield/Beverly",,34.021933,-118.134023,,,0,,0
3052,3052,"Garfield/Grandridge",,34.054814,-118.126113,,,0,,0
3053,3053,"Garfield/Via Acosta",,34.023916,-118.132649,,,0,,0
3054,3054,"Garfield/Maronde",,34.051378,-118.127318,,,0,,0
3055,3055,"Garfield/ViaSanDelaro",,34.025455,-118.130642,,,0,,0
3056,3056,"Garfield/El Repetto",,34.047371,-118.128889,,,0,,0
3057,3057,"Garfield/Via Altamira",,34.027046,-118.128886,,,0,,0
3058,3058,"Garfield/Keller",,34.0443,-118.128589,,,0,,0
3059,3059,"Garfield/Via Paseo",,34.02959,-118.128179,,,0,,0
3060,3060,"Garfield/Elmgate",,34.041165,-118.129222,,,0,,0
3061,3061,"Garfield/ViaPaseo-Campo",,34.030517,-118.128555,,,0,,0
3062,3062,"Garfield/Arlight",,34.038726,-118.129575,,,0,,0
3063,3063,"Garfield/Pomona",,34.033656,-118.12995,,,0,,0
3064,3064,"Garfield/Riggin",,34.036982,-118.130562,,,0,,0
3065,3065,"Garfield/Riggin",,34.037084,-118.130348,,,0,,0
3066,3066,"Garfield/Fernfield",,34.034283,-118.13026,,,0,,0
3067,3067,"Garfield/Floral",,34.038707,-118.129413,,,0,,0
3068,3068,"Garfield/Via Campo",,34.032262,-118.129915,,,0,,0
3069,3069,"Garfield/Elmgate",,34.040846,-118.129064,,,0,,0
3070,3070,"Garfield/ViaCampo-Paseo",,34.029618,-118.128432,,,0,,0
3071,3071,"Garfield/Coral View",,34.044215,-118.128317,,,0,,0
3072,3072,"Garfield/Via Atlamira",,34.02727,-118.128898,,,0,,0
3073,3073,"Garfield/El Repetto",,34.047406,-118.128684,,,0,,0
3074,3074,"Garfield/ViaSanDelarro",,34.025918,-118.130359,,,0,,0
3075,3075,"Garfield/MarondeWay",,34.051166,-118.127176,,,0,,0
3076,3076,"Garfield/Via Acosta",,34.023999,-118.132766,,,0,,0
3077,3077,"Garfield/Graves",,34.055087,-118.125787,,,0,,0
3078,3078,"Garfield/Beverly",,34.022766,-118.133972,,,0,,0
3079,3079,"Garfield/Newmark",,34.06007,-118.122725,,,0,,0
3080,3080,"Garfield/Hay",,34.01918,-118.132613,,,0,,0
3081,3081,"Garfield/Garvey",,34.063066,-118.122695,,,0,,0
3082,3082,"Garfield/Madison",,34.017863,-118.130393,,,0,,0
3083,3083,"Garfield/Emerson",,34.066418,-118.122798,,,0,,0
3084,3084,"Garfield/Whittier",,34.014351,-118.130224,,,0,,0
3085,3085,"Garfield/GarfieldMedCtr",,34.068057,-118.122791,,,0,,0
3086,3086,"Garfield/Allston",,34.013554,-118.13045,,,0,,0
3087,3087,"Garfield/Hellman",,34.069467,-118.122803,,,0,,0
3088,3088,"Garfield/Olympic",,34.011828,-118.130868,,,0,,0
3089,3089,"Garfield/GlendonWay",,34.074402,-118.122894,,,0,,0
3090,3090,"Garfield/Ferguson",,34.008103,-118.131531,,,0,,0
3091,3091,"Garfield/Norwood",,34.076622,-118.122898,,,0,,0
3092,3092,"Garfield/Flotilla",,34.005455,-118.131422,,,0,,0
3093,3093,"Garfield/Valley BL",,34.078327,-118.122944,,,0,,0
3094,3094,"Garfield/Washington",,34.000741,-118.132822,,,0,,0
3095,3095,"Garfield/Shorb",,34.080949,-118.122965,,,0,,0
3096,3096,"Garfield/Malt",,33.996888,-118.134744,,,0,,0
3097,3097,"Garfield/San Marino",,34.083135,-118.122988,,,0,,0
3098,3098,"Garfield/Yates",,33.993532,-118.134821,,,0,,0
3099,3099,"Garfield/Los Higos",,34.085888,-118.122874,,,0,,0
4000,4000,"Beverly / Norwalk",,33.997969,-118.054664,,,0,,0
4001,4001,"Beaudry / 5th",,34.054423,-118.258446,,,0,,0
4003,4003,"4th/Figueroa",,34.053631,-118.25623,,,0,,0
4004,4004,"Beverly/Carley",,34.000724,-118.058247,,,0,,0
4005,4005,"6th/Flower",,34.050118,-118.257127,,,0,,0
4007,4007,"Olive/5th",,34.049235,-118.253094,,,0,,0
4008,4008,"Beverly/Abbeywood",,34.006168,-118.066609,,,0,,0
4009,4009,"4th/Broadway",,34.049236,-118.249119,,,0,,0
4010,4010,"Beverly/Sandoval",,34.0082,-118.073029,,,0,,0
40100,40100,"4th/Mott",,34.038872,-118.207813,,,0,,0
40101,40101,"Beverly/Montebello",,34.016966,-118.105484,,,0,,0
40102,40102,"4th/Soto",,34.040585,-118.211512,,,0,,0
40103,40103,"Beverly/6th",,34.016739,-118.104063,,,0,,0
40104,40104,"4th/Chicago",,34.041744,-118.21407,,,0,,0
40105,40105,"Beverly/4th",,34.016121,-118.101167,,,0,,0
40106,40106,"4th/Cummings",,34.043024,-118.216987,,,0,,0
40107,40107,"Beverly/2nd",,34.015827,-118.099844,,,0,,0
40108,40108,"4th/Boyle",,34.043133,-118.219196,,,0,,0
40109,40109,"Beverly/Poplar",,34.01524,-118.097096,,,0,,0
4011,4011,"4th/Main",,34.04824,-118.247416,,,0,,0
40110,40110,"4th/Gless",,34.043006,-118.222532,,,0,,0
40111,40111,"Beverly/Bradley",,34.014859,-118.0952,,,0,,0
40112,40112,"4th/Anderson",,34.042281,-118.22524,,,0,,0
40113,40113,"Beverly/Pine",,34.01286,-118.088533,,,0,,0
40114,40114,"4th/Merrick",,34.042992,-118.23399,,,0,,0
40115,40115,"Beverly/Paramount",,34.011931,-118.085489,,,0,,0
40116,40116,"4th/Hewitt",,34.044506,-118.2366,,,0,,0
40117,40117,"Beverly/Acacia",,34.011225,-118.083327,,,0,,0
40118,40118,"3rd/Alameda",,34.045242,-118.237482,,,0,,0
40119,40119,"Beverly/Rosemead",,34.010638,-118.081444,,,0,,0
4012,4012,"Beverly/Durfee",,34.009326,-118.07664,,,0,,0
40120,40120,"3rd/Central",,34.046081,-118.23939,,,0,,0
40121,40121,"Beverly/Durfee",,34.009063,-118.076581,,,0,,0
40122,40122,"3rd/San Pedro",,34.047492,-118.242784,,,0,,0
40123,40123,"Beverly/Sandoval",,34.008105,-118.07357,,,0,,0
40124,40124,"3rd/Los Angeles",,34.048432,-118.244491,,,0,,0
40125,40125,"Beverly/Abbeywood",,34.006148,-118.067043,,,0,,0
40126,40126,"3rd/Spring",,34.050188,-118.246821,,,0,,0
40127,40127,"Beverly/Pioneer",,34.0035076666,-118.0627239521,,,0,,0
40128,40128,"Hill/3rd",,34.051398,-118.249551,,,0,,0
40129,40129,"Beverly/Alder",,34.001941,-118.060393,,,0,,0
4013,4013,"4th/Los Angeles",,34.047409,-118.246402,,,0,,0
40130,40130,"Hill/5th",,34.049412,-118.251403,,,0,,0
40131,40131,"Beverly/Carley",,34.000501,-118.058297,,,0,,0
40132,40132,"5th/Grand",,34.050465,-118.254237,,,0,,0
40134,40134,"5th/Flower",,34.05139,-118.255684,,,0,,0
4014,4014,"Beverly/Rosemead",,34.010515,-118.08042,,,0,,0
4015,4015,"4th/Wall",,34.046465,-118.244924,,,0,,0
4016,4016,"Beverly/Acacia",,34.011267,-118.082851,,,0,,0
4017,4017,"4th/San Pedro",,34.045597,-118.242716,,,0,,0
4018,4018,"Beverly/Paramount",,34.012086,-118.085457,,,0,,0
4019,4019,"4th/Towne",,34.044462,-118.240924,,,0,,0
4020,4020,"Beverly/Pine",,34.013019,-118.08841,,,0,,0
4021,4021,"4th/Alameda",,34.043221,-118.237761,,,0,,0
4023,4023,"4th/Merrick",,34.043216,-118.234678,,,0,,0
4024,4024,"Beverly/Poplar",,34.015454,-118.097285,,,0,,0
4025,4025,"4th/Anderson",,34.0421063531,-118.2255236908,,,0,,0
4026,4026,"Beverly/2nd",,34.015911,-118.099617,,,0,,0
4027,4027,"4th/Gless",,34.0428728957,-118.2229567055,,,0,,0
4028,4028,"Beverly/4th",,34.016244,-118.101099,,,0,,0
4029,4029,"4th/Boyle",,34.043035,-118.219219,,,0,,0
4030,4030,"Beverly/6th",,34.016804,-118.103733,,,0,,0
4031,4031,"4th/Chummings",,34.0429028998,-118.2169159276,,,0,,0
4032,4032,"Beverly / Montebello",,34.017436,-118.106361,,,0,,0
4033,4033,"4th/Chicago",,34.041802,-118.214507,,,0,,0
4034,4034,"Beverly/Howard",,34.018091,-118.109775,,,0,,0
4035,4035,"4th/Soto",,34.040666,-118.212183,,,0,,0
4036,4036,"Beverly/Taylor",,34.018571,-118.112072,,,0,,0
4037,4037,"4th/Mott",,34.038985,-118.208233,,,0,,0
4038,4038,"Beverly/Maple",,34.018999,-118.114176,,,0,,0
4039,4039,"4th/Evergreen",,34.037124,-118.204092,,,0,,0
4040,4040,"Beverly/Civic Center",,34.019426,-118.116212,,,0,,0
4041,4041,"4th/Fresno",,34.035704,-118.2009,,,0,,0
4042,4042,"Beverly/20th",,34.020357,-118.120511,,,0,,0
4043,4043,"4th/Concord",,34.034721,-118.198696,,,0,,0
4044,4044,"Beverly/Wilcox",,34.02113,-118.124104,,,0,,0
4045,4045,"4th/Lorena",,34.033796,-118.196762,,,0,,0
4046,4046,"Beverly/Via Val Verde",,34.021521,-118.126643,,,0,,0
4047,4047,"3rd/Indiana",,34.033135,-118.193157,,,0,,0
4048,4048,"Beverly/Concourse",,34.021252088,-118.1283762479,,,0,,0
4049,4049,"3rd/Rowan",,34.033247,-118.187607,,,0,,0
4050,4050,"Beverly/Hay",,34.020999,-118.130043,,,0,,0
4051,4051,"3rd/Gage",,34.033276,-118.185129,,,0,,0
4052,4052,"Beverly/Garfield",,34.022236,-118.133487,,,0,,0
4053,4053,"3rd/Downey Rd",,34.033273,-118.179725,,,0,,0
4054,4054,"Beverly/San Clemente",,34.023506,-118.135833,,,0,,0
4055,4055,"3rd/Eastern",,34.033255,-118.173308,,,0,,0
4056,4056,"Beverly/Findlay",,34.023899,-118.137652,,,0,,0
4057,4057,"3rd/Ford",,34.033233,-118.169553,,,0,,0
4058,4058,"Beverly/Bradshaw",,34.025062,-118.141614,,,0,,0
4059,4059,"3rd/McDonnell",,34.033247,-118.166337,,,0,,0
4060,4060,"Beverly/Gerhart",,34.02695,-118.144666,,,0,,0
4061,4061,"3rd/Mednik",,34.033358,-118.161332,,,0,,0
4062,4062,"Beverly/Sadler",,34.028614,-118.147461,,,0,,0
4063,4063,"3rd/La Verne",,34.033353,-118.158196,,,0,,0
4064,4064,"Beverly/Margaret",,34.029575,-118.149062,,,0,,0
4065,4065,"Beverly/Woods",,34.033044,-118.155262,,,0,,0
4066,4066,"Beverly/Hillview",,34.030925,-118.151351,,,0,,0
4067,4067,"Beverly/Atlantic",,34.032251,-118.153938,,,0,,0
4068,4068,"Beverly/Atlantic",,34.032026,-118.153227,,,0,,0
4069,4069,"Beverly/Hillview",,34.030826,-118.151501,,,0,,0
4070,4070,"3rd/LaVern",,34.033524,-118.159142,,,0,,0
4071,4071,"Beverly/Margaret",,34.029763,-118.149763,,,0,,0
4072,4072,"3rd/Mednik",,34.033464,-118.162413,,,0,,0
4073,4073,"Beverly/Sadler",,34.028269,-118.147294,,,0,,0
4074,4074,"3rd/McDonnell",,34.033422,-118.167273,,,0,,0
4075,4075,"Beverly/Gerhart",,34.026525,-118.144398,,,0,,0
4076,4076,"3rd/Ford",,34.033403,-118.169547,,,0,,0
4077,4077,"Beverly/Bradshaw",,34.024667,-118.141249,,,0,,0
4078,4078,"3rd/Eastern",,34.033459,-118.174244,,,0,,0
4079,4079,"Beverly/Findlay",,34.023794,-118.138056,,,0,,0
4080,4080,"3rd/Marianna",,34.033457,-118.175915,,,0,,0
4081,4081,"Beverly/Garfield",,34.021757,-118.133128,,,0,,0
4082,4082,"3rd/Sunol",,34.033484,-118.17851,,,0,,0
4083,4083,"Beverly/Hay",,34.020806,-118.130726,,,0,,0
4084,4084,"3rd/Gage",,34.033447,-118.184933,,,0,,0
4085,4085,"Beverly/Concourse",,34.020948,-118.128735,,,0,,0
4086,4086,"3rd/Rowan",,34.033419,-118.186733,,,0,,0
4087,4087,"Beverly/Via Val Verde",,34.021344,-118.126158,,,0,,0
4088,4088,"3rd/Ditman",,34.033404,-118.188998,,,0,,0
4089,4089,"Beverly/Wilcox",,34.020527,-118.122202,,,0,,0
4090,4090,"3rd/Indiana",,34.033364,-118.191012,,,0,,0
4091,4091,"Beverly/20th",,34.020046,-118.119894,,,0,,0
4092,4092,"4th/Lorena",,34.033924,-118.196577,,,0,,0
4093,4093,"Beverly/Civic Center",,34.019414,-118.116744,,,0,,0
4094,4094,"4th/Concord",,34.034735,-118.19847,,,0,,0
4095,4095,"Beverly/Maple",,34.018662,-118.113477,,,0,,0
4096,4096,"4th/Fresno",,34.035639,-118.20056,,,0,,0
4097,4097,"Beverly/Taylor",,34.018399,-118.112106,,,0,,0
4098,4098,"4th/Evergreen",,34.037242,-118.204099,,,0,,0
4099,4099,"Beverly/10th",,34.0178,-118.109289,,,0,,0
5001,5001,"Beaudry/5th St Ln 50",,34.053825,-118.259014,,,0,,0
5002,5002,"Rosecrans/Jalon",,33.898806,-118.007488,,,0,,0
5004,5004,"La Mirada/Rosecrans",,33.899073,-118.010997,,,0,,0
5005,5005,"4th St/Figueroa",,34.0536,-118.256221,,,0,,0
5006,5006,"La Mirada/Alicante",,33.902466,-118.011709,,,0,,0
5007,5007,"6th St/Flower",,34.0501,-118.257102,,,0,,0
5008,5008,"La Mirada/Civic Center",,33.905548,-118.011653,,,0,,0
5009,5009,"6th St/Hill",,34.047705,-118.253804,,,0,,0
5010,5010,"La Mirada/Foster",,33.908669,-118.011668,,,0,,0
50100,50100,"Washington/Passons",,33.979313,-118.089795,,,0,,0
50101,50101,"Washington/Garfield",,34.000342,-118.13358,,,0,,0
50102,50102,"Washington/Loch Alene",,33.981524,-118.093851,,,0,,0
50103,50103,"Washington/Vail",,33.997998,-118.126616,,,0,,0
50104,50104,"Washington/Rosemead",,33.983506,-118.097469,,,0,,0
50105,50105,"Washington/Maple",,33.996646,-118.123277,,,0,,0
50106,50106,"Washington/Crossway",,33.985107,-118.10056,,,0,,0
50107,50107,"Washington/Greenwood",,33.995202,-118.119729,,,0,,0
50108,50108,"Washington/Phaeton",,33.98609,-118.102309,,,0,,0
50109,50109,"Washington/Montebello",,33.993901,-118.116571,,,0,,0
5011,5011,"Hill/7th St",,34.045598,-118.254615,,,0,,0
50110,50110,"Washington/Pramount",,33.987517,-118.104794,,,0,,0
50111,50111,"Washington/Bluff",,33.991935,-118.111917,,,0,,0
50112,50112,"Washington/4th St",,33.99264,-118.112951,,,0,,0
50113,50113,"Washington/Paramount",,33.987651,-118.105485,,,0,,0
50114,50114,"Washington/Montebello",,33.994112,-118.116495,,,0,,0
50115,50115,"Washington/Crossway",,33.984648,-118.100005,,,0,,0
50116,50116,"Washington/Greenwood",,33.995296,-118.119412,,,0,,0
50117,50117,"Washington/Rosemead",,33.983651,-118.09816,,,0,,0
50118,50118,"Washington/Maple",,33.996777,-118.123127,,,0,,0
50119,50119,"Washington/Loch Alene",,33.981444,-118.09404,,,0,,0
5012,5012,"La Mirada/Tacuba",,33.914164,-118.011752,,,0,,0
50120,50120,"Washington/Vail",,33.998468,-118.127199,,,0,,0
50121,50121,"Washington/Passons",,33.979617,-118.090698,,,0,,0
50122,50122,"Washington/Garfield",,34.000538,-118.133176,,,0,,0
50123,50123,"Washington/Pico Vista",,33.97703,-118.085969,,,0,,0
50124,50124,"Washington/Gayhart",,34.000024,-118.135945,,,0,,0
50125,50125,"Washington/Pioneer",,33.973648,-118.079363,,,0,,0
50126,50126,"Washington/Saybrook",,33.998286,-118.138731,,,0,,0
50127,50127,"Washington/MillerGrove",,33.972978,-118.076393,,,0,,0
50128,50128,"Washington/Telegraph",,33.995665,-118.142683,,,0,,0
50129,50129,"Washington/Norwalk",,33.9722790776,-118.0731489067,,,0,,0
5013,5013,"Hill/8th St",,34.044266,-118.255982,,,0,,0
50130,50130,"Washington/Leo",,33.997782,-118.151979,,,0,,0
50131,50131,"Washington/Broadway SF SP E",,33.971211,-118.068572,,,0,,0
50132,50132,"Washington/Commerce",,33.999009,-118.155639,,,0,,0
50133,50133,"Washington/Allport",,33.970188,-118.063889,,,0,,0
50134,50134,"Washington/Eastern",,34.000313,-118.159542,,,0,,0
50135,50135,"Washington/Sorensen",,33.969383,-118.060348,,,0,,0
50136,50136,"Washington/O Neill",,34.001467,-118.162938,,,0,,0
50137,50137,"Washington/Appledale",,33.968481,-118.056372,,,0,,0
50138,50138,"Washington/Atlantic",,34.003163,-118.167975,,,0,,0
50139,50139,"Washington/Rivera",,33.96767,-118.052835,,,0,,0
5014,5014,"La Mirada/Imperial",,33.917726,-118.011767,,,0,,0
50140,50140,"Washington/Ransom",,34.004139,-118.170923,,,0,,0
50141,50141,"Washington/Lambert",,33.967384,-118.047615,,,0,,0
50142,50142,"Washington/Ayers",,34.00582,-118.175859,,,0,,0
50143,50143,"Washington/Putman",,33.96793,-118.044413,,,0,,0
50144,50144,"Washington/Arrowmill",,34.006973,-118.179234,,,0,,0
50145,50145,"Pickering/Washington",,33.969104,-118.042032,,,0,,0
50146,50146,"Washington/Oak",,34.009087,-118.185501,,,0,,0
50147,50147,"Pickering/Walnut",,33.971537,-118.041983,,,0,,0
50148,50148,"Washington/Indiana",,34.011216,-118.191562,,,0,,0
50149,50149,"Pickering/Mar Vista",,33.973524,-118.041996,,,0,,0
5015,5015,"Hill/9th St",,34.042664,-118.257505,,,0,,0
50150,50150,"Washington/Grande Vista",,34.013879,-118.207245,,,0,,0
50151,50151,"Pickering/Penn",,33.975606,-118.042008,,,0,,0
50152,50152,"Grande Vista/Lorena",,34.016619,-118.208914,,,0,,0
50153,50153,"Pickering/Philidelphia",,33.97884,-118.041986,,,0,,0
50154,50154,"Olympic/Grande Vista",,34.020307,-118.210676,,,0,,0
50156,50156,"Olympic/Dacotah",,34.020979,-118.212056,,,0,,0
50158,50158,"Olympic/Camulos",,34.022457,-118.215395,,,0,,0
5016,5016,"La Mirada/Granada",,33.922277,-118.011808,,,0,,0
50160,50160,"Olympic/Orme",,34.023382,-118.217507,,,0,,0
50162,50162,"Soto/Olympic",,34.023885,-118.219974,,,0,,0
50164,50164,"Soto/Rio Vista",,34.021292,-118.220282,,,0,,0
50166,50166,"Soto/Washington",,34.017457,-118.22026,,,0,,0
50168,50168,"Washington/Railroad Bridge",,34.0175,-118.224337,,,0,,0
5017,5017,"Hill/Olympic",,34.041326,-118.258839,,,0,,0
50170,50170,"Washington/Santa Fe Bridge",,34.019078,-118.230801,,,0,,0
50172,50172,"Washington/Alameda/RR",,34.019078,-118.233045,,,0,,0
50173,50173,"Painter/Whitier",,33.963006,-118.03329,,,0,,0
50174,50174,"Washington/Alameda",,34.020157,-118.239904,,,0,,0
50175,50175,"Painter/Cullen",,33.961048,-118.035201,,,0,,0
50176,50176,"Washington/Long Beach",,34.020586,-118.242533,,,0,,0
50177,50177,"Painter/Lambert",,33.957982,-118.038275,,,0,,0
50178,50178,"Washington/Hooper",,34.021977,-118.245777,,,0,,0
50179,50179,"Painter/Oval",,33.955646,-118.040606,,,0,,0
5018,5018,"La Mirada/Leffingwell",,33.927301,-118.011694,,,0,,0
50180,50180,"Washington/Naomi",,34.023076,-118.247774,,,0,,0
50181,50181,"Mulberry/Painter",,33.953125,-118.042516,,,0,,0
50182,50182,"Washington/Central",,34.024843,-118.250965,,,0,,0
50183,50183,"Mulberry/Greening",,33.950895,-118.039155,,,0,,0
50184,50184,"Washington/Griffith",,34.026221,-118.253962,,,0,,0
50185,50185,"Mulberry/Maryknoll",,33.949494,-118.037094,,,0,,0
50186,50186,"Washington/San Pedro",,34.027959,-118.257737,,,0,,0
50187,50187,"Mulberry/Calmada",,33.94841,-118.035519,,,0,,0
50188,50188,"Washington/Trinity",,34.028735,-118.259437,,,0,,0
50189,50189,"Mulberry/Gunn",,33.94546,-118.031154,,,0,,0
5019,5019,"Hill/11th St",,34.040075,-118.260011,,,0,,0
50190,50190,"Washington/Maple",,34.029784,-118.261635,,,0,,0
50191,50191,"Mulberry/Mills",,33.943049,-118.028063,,,0,,0
50192,50192,"Washington / Broadway LA W",,34.030066,-118.264474,,,0,,0
50193,50193,"Mulberry/Ruoff",,33.94024,-118.024443,,,0,,0
50194,50194,"Hill/Washington",,34.032418,-118.266356,,,0,,0
50195,50195,"Mulberry/Colima",,33.935292,-118.017157,,,0,,0
50196,50196,"Hil/Venice",,34.034907,-118.264248,,,0,,0
50197,50197,"La Mirada/Mulberry",,33.934852,-118.01187,,,0,,0
50198,50198,"Hill/Pico",,34.037404,-118.262239,,,0,,0
50199,50199,"La Mirada/Hornell",,33.930679,-118.011879,,,0,,0
5020,5020,"La Mirada/Hornell",,33.930837,-118.011708,,,0,,0
50200,50200,"Hill/12th St",,34.038794,-118.261026,,,0,,0
50201,50201,"La Mirada/Leffingwell",,33.926325,-118.012079,,,0,,0
50202,50202,"Hill/11th St",,34.039682,-118.260135,,,0,,0
50203,50203,"La Mirada/Granada",,33.922609,-118.01205,,,0,,0
50204,50204,"Hill/Olympic",,34.041353,-118.258596,,,0,,0
50205,50205,"La Mirada/Imperial",,33.916607,-118.011995,,,0,,0
50206,50206,"Hill/9th St",,34.043142,-118.256943,,,0,,0
50207,50207,"La Mirada/Tacuba",,33.914446,-118.011977,,,0,,0
50208,50208,"Hill/8th St",,34.044395,-118.255842,,,0,,0
50209,50209,"La Mirada/Foster Road",,33.90903,-118.011933,,,0,,0
5021,5021,"Hill/12th St",,34.038489,-118.261428,,,0,,0
50210,50210,"Hill/7th St",,34.0454418947,-118.2547623203,,,0,,0
50211,50211,"La Mirada/Civic Center",,33.905287,-118.01194,,,0,,0
50212,50212,"5th St/Hill",,34.049001,-118.252027,,,0,,0
50213,50213,"La Mirada/Alicante",,33.90278,-118.011935,,,0,,0
50215,50215,"La Mirada/Rosecrans",,33.898172,-118.011023,,,0,,0
50217,50217,"La Mirada/Excelsior",,33.895057,-118.009158,,,0,,0
50219,50219,"La Mirada/Ocaso",,33.891737,-118.003625,,,0,,0
5022,5022,"Mulberry/La mirada",,33.935324,-118.012247,,,0,,0
50221,50221,"Adelfa/Santa Gertrudes",,33.894289,-118.000992,,,0,,0
50227,50227,"Adelfa / Ashgrove",,33.897255,-118.00492,,,0,,0
5023,5023,"Hill/Pico",,34.037821,-118.262111,,,0,,0
5024,5024,"Mulberry/Colima",,33.935515,-118.017097,,,0,,0
5025,5025,"Hill/14th St",,34.036246,-118.263426,,,0,,0
5026,5026,"Mulberry/Ruoff",,33.940434,-118.02438,,,0,,0
5027,5027,"Hil/Venice",,34.034883,-118.264384,,,0,,0
5028,5028,"Mulberry/Mills",,33.943132,-118.027788,,,0,,0
5029,5029,"Washington / Broadway LA E",,34.031609,-118.266266,,,0,,0
5030,5030,"Mulberry/Gunn",,33.945605,-118.031078,,,0,,0
5031,5031,"Washington/Main",,34.031154,-118.265122,,,0,,0
5032,5032,"Mulberry/Calmada",,33.948587,-118.035365,,,0,,0
5033,5033,"Washington/Maple",,34.029284,-118.261094,,,0,,0
5034,5034,"Mulberry/Mariknoll",,33.949832,-118.037155,,,0,,0
5035,5035,"Washington/Trinity",,34.028225,-118.258814,,,0,,0
5036,5036,"Mulberry/Laurel",,33.950981,-118.038978,,,0,,0
5037,5037,"Washington/San Pedro",,34.027383,-118.25695,,,0,,0
5038,5038,"Painter/Mulberry",,33.953684,-118.042381,,,0,,0
5039,5039,"Washington/Griffith",,34.025642,-118.253245,,,0,,0
5040,5040,"Painter/Oval",,33.955352,-118.040629,,,0,,0
5041,5041,"Washington/Central",,34.024075,-118.250042,,,0,,0
5042,5042,"Painter/Lambert",,33.958002,-118.037995,,,0,,0
5043,5043,"Washington/Naomi",,34.022723,-118.247611,,,0,,0
5044,5044,"Painter/Cullen",,33.962421,-118.033749,,,0,,0
5045,5045,"Washington/Hooper",,34.021569,-118.245562,,,0,,0
5047,5047,"Washington/Long Beach",,34.020389,-118.2425,,,0,,0
5049,5049,"Washington/Alameda",,34.020015,-118.240177,,,0,,0
5051,5051,"Washington/Alameda -R/R",,34.018875,-118.233592,,,0,,0
5053,5053,"Washington/SantaFe Bridge",,34.018877,-118.230566,,,0,,0
5055,5055,"Washington/Railroad Bridge",,34.017322,-118.224165,,,0,,0
5057,5057,"Soto/Washington",,34.017609,-118.219986,,,0,,0
5059,5059,"Soto/Rio Vista",,34.02118,-118.220021,,,0,,0
5061,5061,"Olympic/Soto",,34.0240197124,-118.2193875804,,,0,,0
5063,5063,"Olympic/Orme",,34.023343,-118.217922,,,0,,0
5065,5065,"Olympic/Camulos",,34.022495,-118.215936,,,0,,0
5067,5067,"Olympic/Dacotah",,34.020927,-118.212469,,,0,,0
5068,5068,"Pickering/Philidelphia",,33.978803,-118.042099,,,0,,0
5069,5069,"Grande Vista/Olympic",,34.019865,-118.210586,,,0,,0
5070,5070,"Pickering/Penn",,33.975382,-118.042129,,,0,,0
5071,5071,"Grande Vista/Pico",,34.017845,-118.209996,,,0,,0
5072,5072,"Pickering/Mar Vista",,33.973465,-118.042147,,,0,,0
5073,5073,"Washington/Grande Vista",,34.013743,-118.20705,,,0,,0
5074,5074,"Pickering/Walnut",,33.971809,-118.042153,,,0,,0
5075,5075,"Washington/Indiana",,34.010927,-118.191441,,,0,,0
5076,5076,"Pickering/Washington",,33.969451,-118.042179,,,0,,0
5077,5077,"Washington/Oak",,34.008744,-118.184966,,,0,,0
5078,5078,"Washington/Putman",,33.968182,-118.04418,,,0,,0
5079,5079,"Washington/Arrowmill",,34.006929,-118.179608,,,0,,0
5080,5080,"Washington/Lambert",,33.967549,-118.047851,,,0,,0
5081,5081,"Washington/Ayers",,34.005625,-118.175778,,,0,,0
5082,5082,"Washington/Crowndale",,33.967779,-118.052545,,,0,,0
5083,5083,"Washington/Hepworth",,34.004446,-118.172223,,,0,,0
5084,5084,"Washington/Appledale",,33.968592,-118.056287,,,0,,0
5085,5085,"Washington/Atlantic",,34.002823,-118.167415,,,0,,0
5086,5086,"Washington/Sorensen",,33.969493,-118.060266,,,0,,0
5087,5087,"Washington/O Neill",,34.001308,-118.162834,,,0,,0
5088,5088,"Washington/Ridgeview",,33.970344,-118.064033,,,0,,0
5089,5089,"Washington/Eastern",,34.000088,-118.159281,,,0,,0
5090,5090,"Washington/Broadway SF SP W",,33.971549,-118.06923,,,0,,0
5091,5091,"Washington/Commerce",,33.998856,-118.155682,,,0,,0
5092,5092,"Washington/Norwalk",,33.972491,-118.073666,,,0,,0
5093,5093,"Washington/Leo",,33.997611,-118.152036,,,0,,0
5094,5094,"Washington/Rockne",,33.973128,-118.076405,,,0,,0
5095,5095,"Washington/Telegraph",,33.995682,-118.142225,,,0,,0
5096,5096,"Washington/Pioneer",,33.973693,-118.078712,,,0,,0
5097,5097,"Washington/Saybrook",,33.998013,-118.13869,,,0,,0
5098,5098,"Washington/Pico Vista",,33.977087,-118.085684,,,0,,0
5099,5099,"Washington/Gayhart",,33.999946,-118.135657,,,0,,0
6000,6000,"San Gabriel River Pkwy",,34.011936,-118.06842,,,0,,0
6001,6001,"Telegraph / Arrington",,33.960241,-118.108305,,,0,,0
6002,6002,"Manning/Beverly",,34.0066,-118.071227,,,0,,0
6003,6003,"Serapis/Telegraph",,33.959075,-118.106118,,,0,,0
6004,6004,"Durfee/Beverly Rd.",,34.005597,-118.077854,,,0,,0
6005,6005,"Passons/Telegraph",,33.956327,-118.102352,,,0,,0
6006,6006,"Rosemead Beverly Rd",,34.007662,-118.08203,,,0,,0
6007,6007,"Passons/Sunglow",,33.959844,-118.100572,,,0,,0
6009,6009,"Passons/La Docena",,33.9625,-118.100181,,,0,,0
6011,6011,"Passons/Shade",,33.964563,-118.099059,,,0,,0
6012,6012,"Pico Terminal - Jackson / Passons",,33.997225,-118.078843,,,0,,0
6013,6013,"Passons/Myron",,33.965709,-118.098338,,,0,,0
6014,6014,"Passons/Almo",,33.996017,-118.079593,,,0,,0
6015,6015,"Passons/Slauson",,33.968411,-118.09728,,,0,,0
6016,6016,"Passons/Reichling",,33.991531,-118.082422,,,0,,0
6017,6017,"Passons/Rivera",,33.970443,-118.095272,,,0,,0
6018,6018,"Passons/Mines",,33.989246,-118.083826,,,0,,0
6020,6020,"Passons/Balfour",,33.986324,-118.085606,,,0,,0
6021,6021,"Passons/Call",,33.972921,-118.094324,,,0,,0
6022,6022,"El Rancho High School",,33.982665,-118.087886,,,0,,0
6023,6023,"Passons/Foxbury",,33.975283,-118.09312,,,0,,0
6024,6024,"Passons/Wampler",,33.981286,-118.088736,,,0,,0
6025,6025,"Passons/Danbridge",,33.976518,-118.092253,,,0,,0
6026,6026,"Passons/Washington",,33.979479,-118.089992,,,0,,0
6027,6027,"Passons/Washington",,33.979081,-118.090455,,,0,,0
6028,6028,"Passons/Danbridge",,33.976275,-118.092556,,,0,,0
6029,6029,"El Rancho High School",,33.98353,-118.087288,,,0,,0
6030,6030,"Passons/Rex",,33.973593,-118.094168,,,0,,0
6031,6031,"Passons/Balfour",,33.985951,-118.085654,,,0,,0
6033,6033,"Passons/Mines",,33.988746,-118.083966,,,0,,0
6034,6034,"Passons/Rivera",,33.970244,-118.095526,,,0,,0
6035,6035,"Passons/Reichling",,33.991643,-118.082219,,,0,,0
6036,6036,"Passons/Slauson",,33.968054,-118.097499,,,0,,0
6037,6037,"Passons/Bexley",,33.9934,-118.08135,,,0,,0
6038,6038,"Passons/Myron",,33.965845,-118.098505,,,0,,0
6039,6039,"Passons/Loch Lomond",,33.994516,-118.080425,,,0,,0
6040,6040,"Passons/Shade",,33.964562,-118.09923,,,0,,0
6041,6041,"Passons/Glen Canyon",,33.996293,-118.079315,,,0,,0
6042,6042,"Passons/La Docena",,33.962452,-118.100278,,,0,,0
6043,6043,"Pico Terminal - Jackson / Passons",,33.997998,-118.079112,,,0,,0
6044,6044,"Passons/Sunglow",,33.960149,-118.100621,,,0,,0
6046,6046,"Passons/Telegraph",,33.956186,-118.102515,,,0,,0
6047,6047,"Rosemead/Whittier",,34.001664,-118.083682,,,0,,0
6048,6048,"Telegraph/Serapis",,33.958369,-118.106144,,,0,,0
6049,6049,"Rosemead/Olympic",,34.00596,-118.082267,,,0,,0
6051,6051,"Rosemead/Beverly Rd.",,34.007565,-118.081736,,,0,,0
6053,6053,"Durfee/Berverly Rd.",,34.005925,-118.077286,,,0,,0
6055,6055,"Durfee/Beverly Blvd.",,34.008899,-118.076395,,,0,,0
6057,6057,"Durfee/Dork",,34.011203,-118.075662,,,0,,0
6059,6059,"Durfee/Harrell",,34.012711,-118.075226,,,0,,0
6061,6061,"Durfee/Banta",,34.014231,-118.074741,,,0,,0
6063,6063,"Durfee/Gallatin",,34.016077,-118.074116,,,0,,0
6065,6065,"Durfee/Sandown",,34.017956,-118.072319,,,0,,0
6067,6067,"Cate/Chappelle",,34.017561,-118.07052,,,0,,0
6069,6069,"Woodford/Sandoval",,34.016389,-118.069334,,,0,,0
6071,6071,"Woodford/Banta",,34.014589,-118.068261,,,0,,0
70005,70005,"Mines/Maple S",,34.005032,-118.118645,,,0,,0
7001,7001,"Metrolink",,34.006321,-118.125065,,,0,,0
7003,7003,"Mines/Vail",,34.006134,-118.121458,,,0,,0
7006,7006,"Montebello Plaza",,34.032088,-118.125177,,,0,,0
7007,7007,"Mines/Greenwood",,34.003168,-118.114194,,,0,,0
7008,7008,"Wilcox/Via Paseo",,34.029779,-118.12484,,,0,,0
7009,7009,"Mines/Montebello",,34.002043,-118.111348,,,0,,0
7010,7010,"Wilcox/Hay",,34.027502,-118.124155,,,0,,0
7011,7011,"Montebello/Hughes",,33.999849,-118.112769,,,0,,0
7012,7012,"Wilcox/Lincoln",,34.024491,-118.121864,,,0,,0
7013,7013,"Montebello/Beach",,33.998166,-118.113791,,,0,,0
7014,7014,"Wilcox/Victoria",,34.022257,-118.122546,,,0,,0
7016,7016,"Wilcox/Beverly",,34.02014,-118.123173,,,0,,0
7018,7018,"Wilcox/Madison",,34.017023,-118.12413,,,0,,0
7020,7020,"Wilcox/Whittier",,34.01414,-118.124991,,,0,,0
7023,7023,"Maple/Beach",,34.001376,-118.121088,,,0,,0
7025,7025,"Mines/Maple",,34.005333,-118.119236,,,0,,0
7030,7030,"Flotilla/Garfield",,34.005601,-118.130218,,,0,,0
7039,7039,"Wilcox/Whittier",,34.015383,-118.124498,,,0,,0
70390,70390,"Garfield/Whittier",,34.014493,-118.129722,,,0,,0
7041,7041,"Wilcox/Madison",,34.017092,-118.123969,,,0,,0
7043,7043,"Wilcox/Beverly",,34.020161,-118.123013,,,0,,0
7045,7045,"Wilcox/Victoria",,34.022291,-118.122325,,,0,,0
7047,7047,"Wilcox/Lincoln",,34.024023,-118.121804,,,0,,0
7049,7049,"Wilcox/Hay",,34.027905,-118.123999,,,0,,0
7051,7051,"Montebello Plaza - Wilcox / Campo",,34.032111,-118.124956,,,0,,0
7053,7053,"Montebello Plaza",,34.03276,-118.123532,,,0,,0
7055,7055,"Via Campo/Markland",,34.032832,-118.120592,,,0,,0
7061,7061,"Town Center Dr/JC Penny",,34.036943,-118.086563,,,0,,0
7063,7063,"The Shops at Montebello -Robinsons May",,34.036638,-118.080818,,,0,,0
7081,7081,"Potrero Grande/Markland N",,34.035069,-118.117743,,,0,,0
7082,7082,"Potrero Grande/Market Place",,34.039427,-118.108353,,,0,,0
7083,7083,"Potrero Grande/Arroyo NB",,34.045175,-118.099911,,,0,,0
7084,7084,"Hill/Potrero Grande",,34.047975,-118.098032,,,0,,0
7085,7085,"Hill/Arland",,34.045912,-118.094116,,,0,,0
7086,7086,"Paramount/Hill",,34.044145,-118.090747,,,0,,0
7087,7087,"Paramount / Arroyo NB",,34.041366,-118.092147,,,0,,0
7088,7088,"Paramount/Marketplace",,34.037224,-118.093473,,,0,,0
7091,7091,"Paramount/Montebello",,34.034591,-118.09097,,,0,,0
7092,7092,"Paramount/Market Place Dr",,34.037532,-118.093247,,,0,,0
7093,7093,"Paramount/Arroyo SB",,34.041322,-118.091836,,,0,,0
7094,7094,"Hill/South Gabriel",,34.044855,-118.091038,,,0,,0
7095,7095,"Hill/Arland",,34.04586,-118.093495,,,0,,0
7096,7096,"Potrero Grande/Mooney",,34.048089,-118.098619,,,0,,0
7097,7097,"PotreroGrande/Arroyo SB",,34.044559,-118.100552,,,0,,0
7098,7098,"Potrero Grande/Saturn",,34.039512,-118.108764,,,0,,0
7099,7099,"Potrero Grande/Markland SB",,34.035191,-118.117858,,,0,,0
7101,7101,"Flotilla / Yates",,34.0055351315,-118.1279593792,,,0,,0
7102,7102,"Flotilla / Yates",,34.0053903776,-118.127679404,,,0,,0
9009,9009,"Olive/G. K. Way",,34.053059,-118.249814,,,0,,0
9011,9011,"Spring/1st",,34.052593,-118.244745,,,0,,0
9020,9020,"Spring/1st",,34.052565,-118.24473,,,0,,0
9023,9023,"Taylor Ranch",,34.021492,-118.105362,,,0,,0
9026,9026,"Spring / 2nd",,34.0512444,-118.246077,,,0,,0
9036,9036,"Montebello Mart",,34.019472,-118.105519,,,0,,0
9067,9067,"Beverly/Atlantic E (Express)",,34.031873,-118.153365,,,0,,0
