stop_id,stop_code,stop_name,stop_desc,stop_lat,stop_lon,zone_id,stop_url,location_type,parent_station
00001,,"Temple Ave & Diamond Bar Blvd E",,  34.040203,-117.798027,,,0,
00002,,"Hacienda Blvd and Temple Ave S",,  34.030259,-117.954117,,,0,
00003,,"Hacienda Blvd and Temple Ave N",,  34.030307,-117.953758,,,0,
00006,,"Hacienda Blvd and Nelson Ave S",,  34.026069,-117.957811,,,0,
00008,,"Hacienda Blvd and Nelson Ave N",,  34.026215,-117.957569,,,0,
00010,," Orange Grove Ave and Glen Ave N",,  34.064132,-117.781031,,,0,
00012,,"Diamond Bar Blvd and Temple Ave N",,  34.040352,-117.798222,,,0,
00014,,"Diamond Bar Blvd and Mountain Laurel Way N",,  33.992106,-117.816991,,,0,
00015,,"Green St and Raymond Ave E",,  34.144446,-118.148989,,,0,
00016,,"Brea Canyon Rd and Lycoming St N",,  34.003135,-117.846353,,,0,
00017,,"Brea Canyon Rd and Lycoming St S",,  34.002975,-117.846462,,,0,
00020,,"Diamond Bar Blvd and Temple Ave S",,  34.040456,-117.798403,,,0,
00021,,"Seventh Ave and Gale Ave N",,  34.020222,-117.987604,,,0,
00022,,"Mission Blvd and Reservoir St W",,  34.055575,-117.733042,,,0,
00023,,"Amar Rd and Lark Ellen Ave E",,  34.035002,-117.919315,,,0,
00024,,"Amar Rd and Lark Ellen Ave W",,  34.035343,-117.919966,,,0,
00025,,"Amar Rd and Lemon Ave E",,  34.035330,-117.874485,,,0,
00026,,"Amar Rd and Lemon Ave W",,  34.035515,-117.874693,,,0,
00027,,"Amar Rd and Nogales St W",,  34.027635,-117.896090,,,0,
00028,,"Workman Mill Rd and Crossroads Pkwy N",,  34.028684,-118.026118,,,0,
00029,,"Crossroads Pkwy N and Workman Mill Rd S",,  34.032046,-118.020578,,,0,
00030,,"Arrow Hwy and Strawberry Lane W",,  34.106807,-117.841237,,,0,
00031,,"Arrow Hwy and Sunflower Ave E",,  34.106581,-117.846499,,,0,
00032,,"Arrow Hwy and Sunflower Ave W",,  34.106795,-117.846143,,,0,
00033,,"Badillo St and Reeder Ave S",,  34.089615,-117.853361,,,0,
00034,,"Sunflower Ave and Cypress St N",,  34.096082,-117.846318,,,0,
00035,,"Rivergrade Rd and Arrow Hwy N",,  34.109643,-117.967004,,,0,
00036,,"Amar Rd and Sunkist Ave E",,  34.050585,-117.970413,,,0,
00037,,"Lone Hill Ave and Covina Blvd N",,  34.099854,-117.828834,,,0,
00038,,"Arrow Hwy and Monte Vista Ave W",,  34.092495,-117.698751,,,0,
00039,,"Arrow Hwy and Mountain Ave E",,  34.090286,-117.728125,,,0,
00040,,"Arrow Hwy and Orange Grove Ave E",,  34.089937,-117.742730,,,0,
00041,,"Arrow Hwy and Rennell Ave W",,  34.106774,-117.833415,,,0,
00042,,"Arrow Hwy and Royal Palm E",,  34.106591,-117.841209,,,0,
00043,,"Crossroads Pkwy N and Crossroads Pkwy S",,  34.030455,-118.012954,,,0,
00044,,"Crossroads Pkwy N and Crossroads Pkwy N",,  34.030432,-118.013297,,,0,
00045,,"Puente Ave and Temple Ave S",,  34.050609,-117.982073,,,0,
00047,,"Figueroa St and 11 St E (Staples Center)",,  34.043861,-118.264919,,,0,
00066,,"Mission Blvd and Westmont Ave E",,  34.052913,-117.785014,,,0,
00067,,"Mission Blvd and Mission West Business Park W",,  34.053067,-117.785748,,,0,
00129,,"Nogales St and Daisetta St W",,  33.990317,-117.888988,,,0,
00175,,"Garey Ave and Drake St N",,  34.105572,-117.748484,,,0,
00176,,"Garey Ave and Drake St S",,  34.105370,-117.748737,,,0,
00177,,"Azusa Intermodal Transit Center",,  34.135445,-117.906928,,,0,place_AzGL
00178,,"Citrus Ave and Foothill Blvd N",,  34.135743,-117.889865,,,0,place_CiGL
00405,,"Myrtle Ave and Pomona Ave",,  34.134443,-118.000942,,,0,
00493,,"10 Freeway and Azusa Ave E",,  34.072036,-117.908195,,,0,
00494,,"10 Freeway and Azusa Ave W",,  34.072357,-117.906403,,,0,
00496,,"10 Freeway and Puente Ave E",,  34.070052,-117.960427,,,0,
00497,,"10 Freeway and Puente Ave W",,  34.070764,-117.959830,,,0,
00501,,"1st St and Broadway W",,  34.053620,-118.245392,,,0,
00505,,"1st St and Harvard Ave E",,  34.094499,-117.716863,,,0,
00506,,"1st St and Harvard Ave W",,  34.094739,-117.717103,,,0,
00507,,"1st St and Hill E",,  34.054326,-118.246715,,,0,
00509,,"1st St and Mills Ave E",,  34.094938,-117.707411,,,0,
00511,,"1st St and Mills Ave W",,  34.095043,-117.707299,,,0,
00517,,"Second Ave and College St N",,  34.087687,-117.887817,,,0,
00518,,"Second Ave and College St S",,  34.087179,-117.888032,,,0,
00519,,"Second Ave and Puente St N",,  34.083128,-117.887760,,,0,
00520,,"Second Ave and Puente St S",,  34.082771,-117.887982,,,0,
00521,,"Second Ave and Rowland Ave S",,  34.079762,-117.887966,,,0,
00522,,"Second Ave and San Bernardino Rd S",,  34.089992,-117.888058,,,0,
00528,,"Seventh Ave and Bonelli St S",,  34.025543,-117.984207,,,0,
00530,,"Seventh Ave and Clark Ave N",,  34.023053,-117.985891,,,0,
00531,,"Seventh Ave and Clark Ave S",,  34.023529,-117.985881,,,0,
00534,,"Seventh Ave and Don Julian Rd N",,  34.029257,-117.980236,,,0,
00535,,"Seventh Ave and Don Julian Rd S",,  34.029296,-117.980444,,,0,
00540,,"Seventh Ave and Proctor Ave N",,  34.031779,-117.977688,,,0,
00541,,"Seventh Ave and Proctor Ave S",,  34.032211,-117.977575,,,0,
00544,,"Seventh Ave and Salt Lake Ave N",,  34.024839,-117.984561,,,0,
00546,,"7th St and Valley Blvd N",,  34.034378,-117.974928,,,0,
00547,,"Seventh Ave and Valley Blvd S",,  34.034565,-117.975066,,,0,
00549,,"Aliso St and Los Angeles St E",,  34.054884,-118.239690,,,0,
00553,,"Amar Rd and Amber Valley Dr E",,  34.030068,-117.888884,,,0,
00554,,"Amar Rd and Amber Valley Dr W",,  34.029862,-117.889478,,,0,
00555,,"Amar Rd and Azusa Ave E",,  34.030536,-117.913323,,,0,
00556,,"Amar Rd and Azusa Ave W",,  34.031826,-117.915183,,,0,
00560,,"Amar Rd and Braes River Dr E",,  34.034661,-117.879042,,,0,
00561,,"Amar Rd and Braes River Dr W",,  34.034799,-117.879339,,,0,
00563,,"Amar Rd and Countryside Dr W",,  34.036673,-117.869395,,,0,
00565,,"Amar Rd and California Ave E",,  34.041878,-117.958629,,,0,
00566,,"Amar Rd and Countryside Dr W",,  34.036478,-117.869329,,,0,
00567,,"Amar Rd and Creekside Dr E",,  34.033005,-117.885263,,,0,
00568,,"Amar Rd and Creekside Dr W",,  34.033098,-117.885527,,,0,
00569,,"Amar Rd and Del Valle Ave E",,  34.036607,-117.943554,,,0,
00570,,"Amar Rd and Del Valle Ave W",,  34.036843,-117.943580,,,0,
00571,,"Amar Rd and Echelon Ave E",,  34.036075,-117.934276,,,0,
00572,,"Amar Rd and Echelon Ave W",,  34.036292,-117.934900,,,0,
00576,,"Temple Ave and Mt. SAC Way W",,  34.043869,-117.845314,,,0,
00577,,"Amar Rd and Greycliff Ave E",,  34.036200,-117.937445,,,0,
00578,,"Amar Rd and Greycliff Ave W",,  34.036492,-117.938349,,,0,
00579,,"Amar Rd and Hacienda Blvd E",,  34.037005,-117.949551,,,0,
00580,,"Amar Rd and Hacienda Blvd W",,  34.037311,-117.950459,,,0,
00581,,"Amar Rd and Heidleburg Ave E",,  34.039646,-117.854936,,,0,
00582,,"Amar Rd and Heidleburg Ave W",,  34.039817,-117.855087,,,0,
00583,,"Amar Rd and Indian Summer Ave E",,  34.035855,-117.929926,,,0,
00584,,"Amar Rd and Indian Summer Ave W",,  34.036072,-117.929929,,,0,
00587,,"Amar Rd and Meadow Pass Dr  E",,  34.037918,-117.859319,,,0,
00591,,"Amar Rd and Nogales Ave E",,  34.027597,-117.895138,,,0,
00593,,"Amar Rd and Orange Ave E",,  34.048550,-117.967717,,,0,
00594,,"Amar Rd and Orange Ave W",,  34.049116,-117.968080,,,0,
00595,,"Amar Rd and Puente Ave E",,  34.054548,-117.978365,,,0,
00596,,"Amar Rd and Puente Ave W",,  34.054438,-117.977764,,,0,
00598,,"Amar Rd and Shadow Oak Dr E",,  34.026235,-117.902602,,,0,
00599,,"Amar Rd and Shadow Oak Dr W",,  34.026483,-117.903436,,,0,
00600,,"Amar Rd and Sunkist Ave W",,  34.050499,-117.969961,,,0,
00601,,"Amar Rd and Sunset Ave E",,  34.044982,-117.962843,,,0,
00602,,"Amar Rd and Sunset Ave W",,  34.045152,-117.962681,,,0,
00603,,"Amar Rd and Temple Ave E",,  34.029212,-117.910298,,,0,
00604,,"Amar Rd and Temple Ave W",,  34.029547,-117.910347,,,0,
00605,,"Amar Rd and Tonopah Ave E",,  34.046829,-117.965364,,,0,
00606,,"Amar Rd and Tonopah Ave W",,  34.047310,-117.965615,,,0,
00607,,"Amar Rd and Unruh Ave E",,  34.038422,-117.953934,,,0,
00608,,"Amar Rd and Unruh Ave W",,  34.038705,-117.953930,,,0,
00609,,"Amar Rd and Valinda Ave E",,  34.035595,-117.925920,,,0,
00610,,"Amar Rd and Valinda Ave W",,  34.035806,-117.925857,,,0,
00611,,"Amar Rd and Vineland Ave E",,  34.057830,-117.983227,,,0,
00612,,"Amar Rd and Vineland Ave W",,  34.057786,-117.982762,,,0,
00614,,"Amar Rd and Westport St E",,  34.027115,-117.906340,,,0,
00615,,"Amar Rd and Westport St W",,  34.027701,-117.906834,,,0,
00616,,"Amar Rd and Willow Ave E",,  34.052338,-117.972849,,,0,
00617,,"Amar Rd and Willow Ave W",,  34.052274,-117.972377,,,0,
00618,,"Arcadia St and Los Angeles St W",,  34.055250,-118.239047,,,0,
00624,,"Arrow Hwy and Ayon Ave E",,  34.106882,-117.930435,,,0,
00625,,"Arrow Hwy and Morada St W",,  34.107070,-117.928682,,,0,
00626,,"Arrow Hwy and Azusa Ave E",,  34.106713,-117.906749,,,0,
00627,,"Arrow Hwy and Azusa Ave W",,  34.106867,-117.908183,,,0,
00628,,"Arrow Hwy and Azusa Canyon Rd E",,  34.106982,-117.942638,,,0,
00629,,"Arrow Hwy and Santa Fe Dam W",,  34.107172,-117.942800,,,0,
00630,,"Arrow Hwy and Barranca Ave E",,  34.106476,-117.881062,,,0,
00631,,"Arrow Hwy and Barranca Ave W",,  34.106704,-117.881197,,,0,
00635,,"Arrow Hwy and Bonnie Cove Ave E",,  34.106569,-117.855698,,,0,
00636,,"Arrow Hwy and Bonnie Cove Ave W",,  34.106780,-117.855566,,,0,
00638,,"Arrow Hwy and Cambridge Ave W",,  34.090587,-117.727585,,,0,
00639,,"Arrow Hwy and Cerritos Ave W",,  34.106885,-117.898610,,,0,
00641,,"Arrow Hwy and Citrus Ave E",,  34.106718,-117.890685,,,0,
00642,,"Arrow Hwy and Citrus Ave W",,  34.106898,-117.890122,,,0,
00645,,"Arrow Hwy and Clydebank Ave E",,  34.106948,-117.920597,,,0,
00646,,"Arrow Hwy and Clydebank Ave W",,  34.107140,-117.920072,,,0,
00649,,"Arrow Hwy and Enid St E",,  34.106968,-117.914334,,,0,
00650,,"Arrow Hwy and Enid St W",,  34.107125,-117.914046,,,0,
00653,,"Arrow Hwy and Fair Ave E",,  34.091383,-117.760226,,,0,
00654,,"Arrow Hwy and Fair Ave W",,  34.091653,-117.760226,,,0,
00655,,"Arrow Hwy and Fairvalley Ave  E",,  34.106667,-117.885238,,,0,
00656,,"Arrow Hwy and Fairvalley Ave  W",,  34.106851,-117.885587,,,0,
00663,,"Arrow Hwy and Garey Ave E",,  34.089918,-117.748833,,,0,
00664,,"Arrow Hwy and Garey Ave W",,  34.090105,-117.748878,,,0,
00665,,"Arrow Hwy and Gayhurst Ave E",,  34.106927,-117.948637,,,0,
00666,,"Arrow Hwy and Gayhurst Ave W",,  34.107106,-117.949307,,,0,
00667,,"Arrow Hwy and Glendora Ave E",,  34.106590,-117.864059,,,0,
00669,,"Arrow Hwy and Glendora Ave W",,  34.106768,-117.864194,,,0,
00670,,"Arrow Hwy and Grand Ave E",,  34.106041,-117.872910,,,0,
00671,,"Arrow Hwy and Grand Ave W",,  34.106261,-117.873085,,,0,
00674,,"Arrow Hwy and Heintz St E",,  34.106890,-117.952515,,,0,
00675,,"Arrow Hwy and Heintz St W",,  34.107066,-117.953189,,,0,
00676,,"Arrow Hwy and Hollenbeck Ave E",,  34.106695,-117.898511,,,0,
00677,,"Arrow Hwy and Indian Hill Blvd W",,  34.090574,-117.719759,,,0,
00678,,"Arrow Hwy and Irwindale Ave E",,  34.106895,-117.933742,,,0,
00679,,"Arrow Hwy and Irwindale Ave W",,  34.107096,-117.933923,,,0,
00680,,"Arrow Hwy and Lark Ellen Ave E",,  34.107003,-117.916283,,,0,
00681,,"Arrow Hwy and Lark Ellen Ave W",,  34.107187,-117.916355,,,0,
00682,,"Arrow Hwy and Lone Hill Ave E",,  34.106588,-117.828481,,,0,
00683,,"Arrow Hwy and Lone Hill Ave W",,  34.106814,-117.828461,,,0,
00685,,"Arrow Hwy and Lyman Ave N",,  34.106570,-117.849964,,,0,
00686,,"Arrow Hwy and Lyman Ave S",,  34.106804,-117.852167,,,0,
00688,,"Arrow Hwy and Maimone Ave E",,  34.106590,-117.823883,,,0,
00689,,"Arrow Hwy and Maimone Ave W",,  34.106763,-117.824015,,,0,
00690,,"Arrow Hwy and Maine Ave E",,  34.106802,-117.960083,,,0,
00691,,"Arrow Hwy and Maine Ave W",,  34.107011,-117.959360,,,0,
00692,,"Arrow Hwy and Mariposa St E",,  34.089898,-117.752558,,,0,
00693,,"Arrow Hwy and Mariposa St W",,  34.090086,-117.753258,,,0,
00695,,"Arrow Hwy and Monte Vista Ave E",,  34.092345,-117.698549,,,0,
00697,,"Arrow Hwy and Orange Grove Ave W",,  34.090115,-117.742226,,,0,
00698,,"Arrow Hwy and Rennell Ave E",,  34.106589,-117.833033,,,0,
00704,,"Arrow Hwy and Towne Ave E",,  34.090022,-117.737101,,,0,
00705,,"Arrow Hwy and Towne Ave W",,  34.090157,-117.737302,,,0,
00707,,"Arrow Hwy and Valley Center Ave E",,  34.106596,-117.837989,,,0,
00708,,"Arrow Hwy and Valley Center Ave W",,  34.106766,-117.837417,,,0,
00709,,"Arrow Hwy and Vincent Ave E",,  34.106866,-117.925652,,,0,
00710,,"Arrow Hwy and Vincent Ave W",,  34.107080,-117.925153,,,0,
00711,,"Arrow Hwy and White Ave E",,  34.093751,-117.763919,,,0,
00725,,"Avenida Rancheros and Golden Springs Dr N",,  34.037594,-117.794441,,,0,
00728,,"Avenida Rancheros and Santa Clara Dr N",,  34.036955,-117.787468,,,0,
00729,,"Avenida Rancheros and Los Felis Dr S",,  34.037091,-117.787530,,,0,
00733,,"Azusa and 1st St N",,  34.122021,-117.907506,,,0,
00734,,"Azusa and 3rd St N",,  34.126088,-117.907518,,,0,
00736,,"Azusa and 5th St N",,  34.129754,-117.907480,,,0,
00737,,"Azusa Ave and 9th St N",,  34.137558,-117.907422,,,0,
00738,,"Azusa Ave and Amar Rd N",,  34.031554,-117.914520,,,0,
00739,,"Azusa Ave and Amar Rd S",,  34.031158,-117.915065,,,0,
00740,,"Azusa Ave and Aroma Dr N",,  34.047662,-117.908000,,,0,
00741,,"Azusa Ave and Arrow Hwy S",,  34.106397,-117.907817,,,0,
00743,,"Azusa Ave and Badillo St S",,  34.086769,-117.907928,,,0,
00744,,"Azusa Ave and Cameron Ave N",,  34.061412,-117.907774,,,0,
00745,,"Azusa Ave and Cameron Ave S",,  34.060827,-117.908006,,,0,
00746,,"Azusa Ave and Cortez St N",,  34.065078,-117.907701,,,0,
00747,,"Azusa Ave and Cortez St S",,  34.064982,-117.907938,,,0,
00748,,"Azusa Ave and Covina Blvd S",,  34.099159,-117.907874,,,0,
00749,,"Azusa and Covina N",,  34.099667,-117.907609,,,0,
00750,,"Azusa and Cypress N",,  34.095529,-117.907627,,,0,
00751,,"Azusa Ave and Cypress St S",,  34.095422,-117.907898,,,0,
00754,,"Azusa Ave and Fairgrove Ave N",,  34.042886,-117.911085,,,0,
00755,,"Azusa Ave and Fairgrove Ave S",,  34.042968,-117.911405,,,0,
00757,,"Azusa Ave and Francisquito Ave N",,  34.050410,-117.907918,,,0,
00758,,"Azusa Ave and Francisquito Ave S",,  34.049929,-117.908156,,,0,
00759,,"Azusa Ave and Gale Ave N",,  34.000458,-117.930616,,,0,
00760,,"Azusa Ave and Gale Ave S",,  34.000557,-117.930929,,,0,
00761,,"Azusa Ave and Gemini St N",,  34.018952,-117.919816,,,0,
00762,,"Azusa Ave and Gemini St S",,  34.018851,-117.920136,,,0,
00763,,"Azusa Ave and Gladstone St N",,  34.114556,-117.907540,,,0,
00764,,"Azusa Ave and Gladstone St S",,  34.114457,-117.907811,,,0,
00765,,"Azusa Ave and Grenoble Ave S",,  34.047566,-117.908238,,,0,
00766,,"Azusa and Grondahl N",,  34.102457,-117.907587,,,0,
00767,,"Azusa Ave and Grondahl St S",,  34.102174,-117.907851,,,0,
00768,,"Azusa Ave and Hurley St N",,  34.011580,-117.923420,,,0,
00769,,"Azusa Ave and Hurley St S",,  34.011516,-117.923849,,,0,
00770,,"Azusa Ave and Main St S",,  34.013077,-117.923214,,,0,
00771,,"Azusa Ave and Merced Ave N",,  34.054127,-117.907858,,,0,
00772,,"Azusa Ave and Merced Ave S",,  34.053663,-117.908131,,,0,
00773,,"Azusa Ave and Newburgh St N",,  34.110022,-117.907542,,,0,
00774,,"Azusa Ave and Newburgh St S",,  34.110046,-117.907813,,,0,
00775,,"Azusa Ave and Arrow Hwy N",,  34.107378,-117.907542,,,0,
00776,,"Azusa and Paramount N",,  34.117661,-117.907335,,,0,
00777,,"Azusa Ave and Paramount St S",,  34.118301,-117.907774,,,0,
00778,,"Azusa Ave and Puente Ave N",,  34.083161,-117.907651,,,0,
00779,,"Azusa Ave and Puente Ave S",,  34.082496,-117.907906,,,0,
00780,,"Azusa Ave and Railroad St N",,  34.004439,-117.930028,,,0,
00781,,"Azusa Ave and Railroad St S",,  34.004101,-117.930418,,,0,
00782,,"Azusa Ave and Rowland Ave N",,  34.078897,-117.907656,,,0,
00783,,"Azusa Ave and Rowland Ave S",,  34.079378,-117.907886,,,0,
00784,,"Azusa and San Bernardino N",,  34.089371,-117.907667,,,0,
00787,,"Azusa Ave and S Garvey Ave N",,  34.070329,-117.907625,,,0,
00788,,"Azusa Ave and S Garvey Ave S",,  34.069763,-117.907867,,,0,
00789,,"Azusa Ave and Temple Ave N",,  34.024348,-117.917550,,,0,
00790,,"Azusa Ave and Temple Ave S",,  34.024125,-117.918026,,,0,
00791,,"Azusa Ave and Vine Ave N",,  34.057727,-117.907798,,,0,
00792,,"Azusa Ave and Vine Ave S",,  34.057244,-117.908056,,,0,
00793,,"Azusa Ave and Wing Ln N",,  34.027199,-117.916495,,,0,
00794,,"Azusa Ave and Wing Ln S",,  34.027664,-117.916600,,,0,
00795,,"Azusa Ave and Workman Ave N",,  34.076205,-117.907617,,,0,
00796,,"Azusa Ave and Workman Ave S",,  34.075720,-117.907870,,,0,
00799,,"Covina Blvd and Kimberly Ave",,  34.099477,-117.835668,,,0,
00802,,"Baldwin Park Blvd and Bess Ave E",,  34.063474,-117.985907,,,0,
00803,,"Baldwin Park Blvd and Bess Ave W",,  34.063419,-117.985739,,,0,
00804,,"Baldwin Park Blvd and Nubia St N",,  34.103413,-117.964862,,,0,
00805,,"Baldwin Park Blvd and Nubia St S",,  34.103314,-117.965040,,,0,
00808,,"Baldwin Park Blvd and Los Angeles St S",,  34.091897,-117.965048,,,0,
00809,,"Baldwin Park Blvd and Merced Ave N",,  34.078997,-117.969594,,,0,
00810,,"Baldwin Park Blvd and Olive St N",,  34.099154,-117.964781,,,0,
00811,,"Baldwin Park Blvd and Olive St S",,  34.099808,-117.965018,,,0,
00812,,"Baldwin Park Blvd and Park Shadow Ct E",,  34.088116,-117.964980,,,0,
00816,,"Baldwin Park Blvd and Ramona Blvd S",,  34.085035,-117.964906,,,0,
00817,,"Baldwin Park Blvd and Stewart Ave N",,  34.081538,-117.966905,,,0,
00819,,"Barranca Ave and N Garvey Ave S",,  34.073752,-117.881422,,,0,
00821,,"Barranca Ave and Puente St S",,  34.082144,-117.881437,,,0,
00823,,"Barranca Ave and Rowland Ave N",,  34.078546,-117.881237,,,0,
00825,,"Base Line Rd and Allegany Ct N",,  34.121577,-117.713312,,,0,
00827,,"Base Line Rd and Bonnie Brae Ave S",,  34.121709,-117.711253,,,0,
00829,,"Base Line Rd and Forbes Ave S",,  34.121670,-117.715700,,,0,
00830,,"Base Line Rd and Grand Ave",,  34.121384,-117.874693,,,0,
00831,,"Base Line Rd and Grand Ave",,  34.121523,-117.872996,,,0,
00833,,"Base Line Rd and Edinboro Ave N",,  34.121722,-117.708530,,,0,
00837,,"Beach Blvd and Gregory Ln N",,  33.936435,-117.967721,,,0,
00838,,"Beach Blvd and Gregory Ln S",,  33.936355,-117.968093,,,0,
00839,,"Beach Blvd and La Habra Blvd N",,  33.933500,-117.967702,,,0,
00840,,"Beach Blvd and Whittier Blvd S",,  33.939480,-117.968112,,,0,
00841,,"Bennett Ave and Glendora Ave S",,  34.139648,-117.865698,,,0,
00842,,"Bennett Ave and Grand Ave N",,  34.139749,-117.872340,,,0,
00843,,"Bennett Ave and Vermont Ave N",,  34.139751,-117.866616,,,0,
00845,,"Bennett Ave and Washington Ave S",,  34.139627,-117.869250,,,0,
00847,,"Beverly Dr and Workman Mill Rd N",,  33.997786,-118.054573,,,0,
00848,,"Beverly Blvd and Carley Ave S",,  34.000505,-118.058290,,,0,
00850,,"Bonita Ave and Arrow Hwy W",,  34.106780,-117.818561,,,0,
00851,,"Bonita Ave and B St E",,  34.102425,-117.773523,,,0,
00853,,"Bonita Ave and Berkeley Ave E",,  34.096464,-117.722970,,,0,
00854,,"Bonita Ave and Berkeley Ave W",,  34.096566,-117.723042,,,0,
00855,,"Bonita Ave and Cambridge Ave E",,  34.096320,-117.727093,,,0,
00856,,"Bonita Ave and Cambridge Ave W",,  34.096467,-117.727673,,,0,
00857,,"Bonita Ave and Carnegie Ave E",,  34.096185,-117.732048,,,0,
00858,,"Bonita Ave and Carnegie Ave W",,  34.096317,-117.731839,,,0,
00859,,"Bonita Ave and Cataract Ave E",,  34.106552,-117.811733,,,0,
00860,,"Bonita Ave and Cataract Ave W",,  34.106810,-117.811379,,,0,
00861,,"Bonita Ave and D St E",,  34.101387,-117.769549,,,0,
00862,,"Bonita Ave and D St W",,  34.101805,-117.770737,,,0,
00863,,"Bonita Ave and Damien Ave E",,  34.106216,-117.787913,,,0,
00864,,"Bonita Ave and Damien Ave W",,  34.106602,-117.788695,,,0,
00865,,"Bonita Ave and Eucla Ave E",,  34.106594,-117.815591,,,0,
00866,,"Bonita Ave and Eucla Ave W",,  34.106771,-117.816169,,,0,
00867,,"Bonita Ave and F St E",,  34.100441,-117.765941,,,0,
00868,,"Bonita Ave and F St W",,  34.100700,-117.766429,,,0,
00869,,"Bonita Ave and Thompson Creek Rd E",,  34.097589,-117.754968,,,0,
00870,,"Bonita Ave and Fulton Rd W",,  34.098111,-117.756514,,,0,
00871,,"Bonita Ave and Garey Ave W",,  34.096343,-117.749064,,,0,
00872,,"Bonita Ave and Indian Hill Blvd W",,  34.096677,-117.719891,,,0,
00873,,"Bonita Ave and Park Ave E",,  34.103405,-117.777329,,,0,
00874,,"Bonita Ave and Magnolia Ave W",,  34.103965,-117.778705,,,0,
00875,,"Bonita Ave and San Dimas Ave E",,  34.106616,-117.806679,,,0,
00876,,"Bonita Ave and San Dimas Ave W",,  34.106740,-117.806929,,,0,
00877,,"Bonita Ave and San Dimas Canyon Rd E",,  34.106575,-117.793607,,,0,
00880,,"Bonita Ave and Towne Ave E",,  34.096047,-117.736441,,,0,
00881,,"Bonita Ave and Towne Ave W",,  34.096248,-117.736573,,,0,
00882,,"Bonita Ave and Walnut Ave E",,  34.106579,-117.802503,,,0,
00883,,"Bonita Ave and Walnut Ave W",,  34.106767,-117.803074,,,0,
00884,,"Bonita Ave and White Ave E",,  34.099496,-117.762168,,,0,
00885,,"Bonita Ave and White Ave W",,  34.099781,-117.762960,,,0,
00889,,"Avenida Barbosa and Buena Vista St N",,  34.118310,-117.984223,,,0,
00890,,"Avenida Barbosa and Alpha St S",,  34.117979,-117.984139,,,0,
00891,,"Buena Vista St and Central Ave E",,  34.136151,-117.977680,,,0,
00893,,"Buena Vista St and Duarte Rd S",,  34.131488,-117.977678,,,0,
00894,,"Buena Vista St and Kellwil Way N",,  34.128899,-117.977498,,,0,
00895,,"Buena Vista St and Kellwil Way S",,  34.128482,-117.977649,,,0,
00896,,"Cal State LA E",,  34.062501,-118.168101,,,0,
00897,,"Cal State LA W",,  34.062842,-118.167874,,,0,
00899,,"Cameron Ave and Azusa Ave N",,  34.061014,-117.908157,,,0,
00900,,"Cameron Ave and Azusa Ave S",,  34.061165,-117.907622,,,0,
00906,,"Cameron Ave and Fernwood St N",,  34.061044,-117.911132,,,0,
00907,,"Cameron Ave and Fernwood St S",,  34.061198,-117.911304,,,0,
00911,,"Cameron Ave and Hollenbeck St N",,  34.060965,-117.898669,,,0,
00912,,"Cameron Ave and Hollenbeck St S",,  34.061086,-117.898837,,,0,
00915,,"Cameron Ave and Lark Ellen Ave N",,  34.061105,-117.916969,,,0,
00916,,"Cameron Ave and Lark Ellen Ave S",,  34.061254,-117.917091,,,0,
00919,,"Cameron Ave and Montezuma Wy N",,  34.060909,-117.894357,,,0,
00920,,"Cameron Ave and Montezuma Wy S",,  34.061049,-117.894452,,,0,
00923,,"Cameron Ave and Valinda Ave N",,  34.061182,-117.925085,,,0,
00930,,"Citrus Ave and Armstead Dr N",,  34.118119,-117.890105,,,0,
00931,,"Citrus Ave and Armstead Dr S",,  34.118047,-117.890260,,,0,
00932,,"Citrus Ave and Arrow Hwy N",,  34.106594,-117.890170,,,0,
00934,,"Citrus Ave and Baseline Rd N",,  34.122133,-117.890093,,,0,
00935,,"Citrus Ave and Baseline Rd S",,  34.121666,-117.890246,,,0,
00937,,"Citrus Ave and Cameron Ave N",,  34.061351,-117.890147,,,0,
00938,,"Citrus Ave and Cameron Ave S",,  34.061098,-117.890323,,,0,
00941,,"Citrus Ave and Cortez St N",,  34.064453,-117.890109,,,0,
00942,,"Citrus Ave and Cortez St S",,  34.064678,-117.890254,,,0,
00946,,"Citrus Ave and Cypress St N",,  34.096147,-117.890074,,,0,
00947,,"Citrus Ave and Cypress St S",,  34.095963,-117.890332,,,0,
00951,,"Citrus Ave and Foothill Blvd E",,  34.133067,-117.890069,,,0,
00955,,"Citrus Ave and Gladstone St N",,  34.113835,-117.890134,,,0,
00956,,"Citrus Ave and Gladstone St S",,  34.113736,-117.890299,,,0,
00957,,"Citrus Ave and Laxford Rd N",,  34.109188,-117.890166,,,0,
00958,,"Citrus Ave and Laxford Rd S",,  34.109026,-117.890305,,,0,
00959,,"Citrus Ave and Mauna Loa Ave N",,  34.124925,-117.890053,,,0,
00960,,"Citrus Ave and Mauna Loa Ave S",,  34.124774,-117.890215,,,0,
00961,,"Citrus Ave and Route 66 E",,  34.130022,-117.890179,,,0,
00963,,"Citrus Ave and Route 66 S",,  34.128275,-117.890201,,,0,
00964,,"Citrus Ave and Route 66 W",,  34.130094,-117.889987,,,0,
00966,,"Citrus Ave and Rowland Ave S",,  34.078613,-117.890243,,,0,
00970,,"Citrus Ave and Walnut Creek Pkwy S",,  34.069762,-117.890205,,,0,
00975,,"Claremont Blvd and Arrow Hwy W",,  34.092944,-117.706725,,,0,
00977,,"Claremont Blvd and 1st St W",,  34.094743,-117.705229,,,0,
00978,,"Claremont Blvd and 9th St N",,  34.102693,-117.703063,,,0,
00979,,"Claremont Blvd and Foothill Blvd N",,  34.106510,-117.703080,,,0,
00981,,"Claremont Transit Center   E",,  34.094530,-117.712443,,,0,
00982,,"1st St and Columbia Ave W (CTC)",,  34.094773,-117.711613,,,0,
00983,,"Cogswell Rd and Deana St E",,  34.072169,-118.014251,,,0,
00984,,"Cogswell Rd and Exline St E",,  34.066373,-118.017221,,,0,
00985,,"Cogswell Rd and Ferris Rd E",,  34.069574,-118.015568,,,0,
00986,,"Cogswell Rd and Killian St E",,  34.082666,-118.009077,,,0,
00987,,"Cogswell Rd and Lambert Ave E",,  34.079247,-118.010728,,,0,
00988,,"Cogswell Rd and Lower Azusa Rd E",,  34.087662,-118.006627,,,0,
00989,,"Cogswell Rd and Ramona Blvd E",,  34.075025,-118.012820,,,0,
00991,,"Colima Rd and Albatross Rd W",,  33.990664,-117.924960,,,0,
00993,,"Colima Rd and Allenton Ave N",,  33.981307,-117.966645,,,0,
00994,,"Colima Rd and Allenton Ave S",,  33.981010,-117.966025,,,0,
00995,,"Colima Rd and Avalo Dr N",,  33.980614,-117.977302,,,0,
00996,,"Colima Rd and Avalo Dr S",,  33.980883,-117.976801,,,0,
00997,,"Colima Rd and Banida Ave E",,  33.986938,-117.881186,,,0,
00998,,"Colima Rd and Banida Ave W",,  33.987164,-117.881545,,,0,
00999,,"Colima Rd and Batson Ave E",,  33.988442,-117.903365,,,0,
01001,,"Golden Springs Rd and Calbourne Dr E",,  33.994209,-117.858221,,,0,
01002,,"Colima Rd and Camino del Sur  N",,  33.977821,-117.982020,,,0,
01003,,"Colima Rd and Camino del Sur S",,  33.978204,-117.982003,,,0,
01004,,"Colima Rd and Carretera Dr N",,  33.953979,-118.002993,,,0,
01005,,"Colima Rd and Brea Canyon Cut-off Rd E",,  33.986967,-117.869343,,,0,
01006,,"Colima Rd and Fullerton Rd W",,  33.988562,-117.906122,,,0,
01009,,"Colima Rd and Greencastle Ave W",,  33.987958,-117.896685,,,0,
01011,,"Colima Rd and Hacienda Blvd S",,  33.981299,-117.973499,,,0,
01012,,"Colima Rd and Halliburton Rd N",,  33.989950,-117.945753,,,0,
01013,,"Colima Rd and Halliburton Rd W",,  33.990284,-117.945169,,,0,
01014,,"Colima Rd and Jellick Ave W",,  33.988264,-117.900917,,,0,
01016,,"Colima Rd and Larkvane Rd E",,  33.988738,-117.909447,,,0,
01019,,"Colima Rd and Manor Gate Rd N",,  33.990941,-117.934365,,,0,
01020,,"Colima Rd and Manor Gate Rd S",,  33.990799,-117.934721,,,0,
01022,,"Colima Rd and Mar Vista Dr N",,  33.961729,-118.001796,,,0,
01023,,"Colima Rd and Mar Vista Dr S",,  33.961521,-118.001972,,,0,
01024,,"Colima Rd and Nausika Ave E",,  33.986726,-117.877498,,,0,
01025,,"Colima Rd and Nausika Ave W",,  33.986979,-117.878088,,,0,
01027,,"Colima Rd and Nogales St E",,  33.987382,-117.888683,,,0,
01028,,"Colima Rd and Otterbien Ave E",,  33.987128,-117.884527,,,0,
01029,,"Colima Rd and Otterbien Ave W",,  33.987340,-117.884659,,,0,
01034,,"Colima Rd and Paso Real Ave E",,  33.987857,-117.893944,,,0,
01036,,"Colima Rd and Punta Del Este Dr N",,  33.986081,-117.953976,,,0,
01037,,"Colima Rd and Punta Del Este Dr S",,  33.985988,-117.953629,,,0,
01038,,"Colima Rd and Sierra Ridge Wy S",,  33.982703,-117.959681,,,0,
01039,,"Colima Rd and Stimson Ave N",,  33.983066,-117.959493,,,0,
01042,,"Colima Rd and Walnut Hall Rd E",,  33.990291,-117.918092,,,0,
01045,,"Colima Rd and Whittier Blvd N",,  33.948813,-118.006106,,,0,
01052,,"Colorado Blvd and Allen Ave E",,  34.145921,-118.113380,,,0,
01053,,"Colorado Blvd and Allen Ave W",,  34.146111,-118.113446,,,0,
01054,,"Colorado Blvd and Arroyo Pkwy E",,  34.145753,-118.146968,,,0,
01058,,"Colorado Blvd and Catalina Ave E",,  34.145850,-118.129102,,,0,
01059,,"Colorado Blvd and Catalina Ave W",,  34.146009,-118.129674,,,0,
01060,,"Colorado Blvd and El Molino Ave E",,  34.145831,-118.136637,,,0,
01061,,"Colorado Blvd and Garfield Ave E",,  34.145764,-118.144377,,,0,
01063,,"Colorado Blvd and Garfield Ave W",,  34.145943,-118.144711,,,0,
01066,,"Colorado Blvd and Hill Ave E",,  34.145878,-118.121034,,,0,
01067,,"Colorado Blvd and Hill Ave W",,  34.146056,-118.121745,,,0,
01068,,"Colorado Blvd and Lake Ave E",,  34.145844,-118.132178,,,0,
01069,,"Colorado Blvd and Lake Ave W",,  34.145934,-118.133031,,,0,
01070,,"Colorado Blvd and Los Robles Ave E",,  34.145760,-118.141155,,,0,
01071,,"Colorado Blvd and Los Robles Ave W",,  34.145880,-118.141750,,,0,
01074,,"Colorado Blvd and Marengo Ave W",,  34.145850,-118.146172,,,0,
01085,,"Rosemead Blvd and Colorado Blvd E",,  34.146028,-118.073535,,,0,
01086,,"Colorado Blvd and San Gabriel Blvd W",,  34.146231,-118.094899,,,0,
01088,,"Colorado Blvd and Sierra Bonita Ave E",,  34.145898,-118.117316,,,0,
01089,,"Colorado Blvd and Sierra Madre Blvd E",,  34.146006,-118.101214,,,0,
01090,,"Colorado Blvd and Sierra Madre Blvd W",,  34.146192,-118.102110,,,0,
01097,,"Copley Dr and AQMD W",,  33.999403,-117.831319,,,0,
01098,,"Copley Dr and Diamond Bar City Hall E",,  33.998366,-117.833813,,,0,
01099,,"Copley Dr and Golden Springs Dr",,  33.999574,-117.830838,,,0,
01100,,"Copley Dr and Valley Vista Dr E",,  33.998415,-117.835799,,,0,
01105,,"Corporate Center Dr and Devry University",,  34.063410,-117.802909,,,0,
01108,,"County Rd and Garey Ave S",,  34.026007,-117.748543,,,0,
01109,,"County Rd and Towne S",,  34.026213,-117.740631,,,0,
01110,,"Covina Blvd and Hospital Entrance N",,  34.099087,-117.833422,,,0,
01111,,"Covina Blvd and Bonnie Cove Ave N",,  34.099349,-117.854627,,,0,
01112,,"Covina Blvd and Bonnie Cove Ave S",,  34.099492,-117.854885,,,0,
01120,,"Covina Blvd and Lyman Ave S",,  34.099499,-117.849444,,,0,
01121,,"Covina Blvd and Lone Hill Ave",,  34.099533,-117.829876,,,0,
01122,,"Covina Blvd and Mangrove Ave N",,  34.099345,-117.860210,,,0,
01123,,"Covina Blvd and Mangrove Ave S",,  34.099449,-117.860226,,,0,
01124,,"Covina Blvd and Sunflower Ave N",,  34.099369,-117.846663,,,0,
01125,,"Covina Blvd and Sunflower Ave S",,  34.099518,-117.846749,,,0,
01128,,"Covina Blvd and Valley Center Ave N",,  34.099353,-117.838003,,,0,
01129,,"Covina Blvd and Valley Center Ave S",,  34.099526,-117.838002,,,0,
01131,,"Workman Mill Rd. and FedEx S",,  34.023880,-118.034686,,,0,
01142,,"Diamond Bar Blvd and Golden Springs Dr E",,  34.019663,-117.808856,,,0,
01143,,"Diamond Bar Blvd and Golden Springs Dr",,  34.019168,-117.808824,,,0,
01144,,"Diamond Bar Blvd and Highland Valley Rd E",,  34.036741,-117.805226,,,0,
01145,,"Diamond Bar Blvd and Highland Valley Rd W",,  34.036217,-117.806042,,,0,
01146,,"Diamond Bar Blvd and Diamond Bar Ranch S",,  34.020676,-117.809969,,,0,
01147,,"Diamond Bar Blvd and Diamond Bar Park & Ride E",,  34.024564,-117.811812,,,0,
01148,,"Diamond Bar Blvd and Diamond Bar Park & Ride W",,  34.025362,-117.811998,,,0,
01149,,"Diamond Bar Blvd and Sunset Crossing Rd E",,  34.028898,-117.810370,,,0,
01150,,"Diamond Bar Blvd and Sunset Crossing Rd",,  34.028890,-117.810634,,,0,
01152,,"Diamond Bar Blvd and Gentle Springs",,  34.020808,-117.809744,,,0,
01156,,"Diamond Ranch High School",,  34.022865,-117.777257,,,0,
01159,,"Duarte Rd and Buena Vista St E",,  34.132164,-117.977132,,,0,
01161,,"Duarte Rd and Hope Dr E",,  34.132171,-117.971042,,,0,
01163,,"Durward Wy and D St",,  34.111055,-117.764052,,,0,
01167,,"East End Ave and Holt W",,  34.062586,-117.724145,,,0,
01168,,"East End Ave and Mission W",,  34.056265,-117.723998,,,0,
01170,,"El Monte Station",,  34.072078,-118.045257,,,0,place_EMS
01179,,"Fairplex Dr and Elwood Ave E",,  34.068469,-117.787896,,,0,
01180,,"Fairplex Dr and Elwood Ave W",,  34.068395,-117.788061,,,0,
01183,,"Francisquito  and California Ave W",,  34.050602,-117.949546,,,0,
01185,,"Figueroa St and 5th St E",,  34.051896,-118.257409,,,0,
01186,,"Figueroa St and 7th St E",,  34.049247,-118.259943,,,0,
01187,,"Figueroa St and 8th St E",,  34.047796,-118.261276,,,0,
01188,,"Figueroa St and 9th St E",,  34.046477,-118.262463,,,0,
01193,,"6th St and Hope St/ Flower St W",,  34.049757,-118.256929,,,0,
01194,,"Foothill Blvd and Alameda/Azusa W",,  34.133647,-117.906620,,,0,
01195,,"Foothill Blvd and Amelia Ave E",,  34.126833,-117.819898,,,0,
01197,,"Foothill Blvd and Amelia Ave W",,  34.127050,-117.820093,,,0,
01201,,"Foothill Blvd and Baseline Rd W",,  34.121337,-117.788862,,,0,
01204,,"Foothill Blvd and Chelsea Dr E",,  34.115488,-117.771839,,,0,
01205,,"Foothill Blvd and Chelsea Dr W",,  34.115664,-117.771733,,,0,
01209,,"Foothill Blvd and Citrus Ave W",,  34.133463,-117.890217,,,0,
01211,,"Foothill Blvd and Claremont Blvd S",,  34.107058,-117.703425,,,0,
01215,,"Foothill Blvd and Dartmouth Ave  E",,  34.106925,-117.713319,,,0,
01216,,"Foothill Blvd and Dartmouth Ave W",,  34.107184,-117.713503,,,0,
01223,,"Foothill Blvd and D St E",,  34.113123,-117.764792,,,0,
01225,,"Foothill Blvd and D St W",,  34.113365,-117.764835,,,0,
01226,,"Foothill Blvd and Dalton Ave E",,  34.133428,-117.904671,,,0,
01227,,"Foothill Blvd and Dalton Ave W",,  34.133634,-117.904598,,,0,
01228,,"Foothill Blvd and Damien Ave W",,  34.119201,-117.782220,,,0,
01230,,"Foothill Blvd and Elwood Ave S",,  34.135976,-117.850436,,,0,
01231,,"Foothill Blvd and Elwood Ave N",,  34.136152,-117.850449,,,0,
01233,,"Foothill Blvd and Emerald Ave E",,  34.113958,-117.767387,,,0,
01234,,"Foothill Blvd and Emerald Ave W",,  34.114622,-117.768630,,,0,
01235,,"Foothill Blvd and Falcon St E",,  34.109310,-117.753294,,,0,
01237,,"Foothill Blvd and Bradford St. W",,  34.110260,-117.755550,,,0,
01238,,"Foothill Blvd and Fruit St W",,  34.112491,-117.762244,,,0,
01239,,"Citrus College North (Foothill Blvd and Galanto E)",,  34.135904,-117.885194,,,0,
01240,,"Foothill Blvd and Barranca Ave E",,  34.135913,-117.881566,,,0,
01243,,"Foothill Blvd and Garey Ave E",,  34.107555,-117.748023,,,0,
01245,,"Foothill Blvd and Garey Ave W",,  34.108129,-117.749121,,,0,
01248,,"Foothill Blvd and Grand Ave E",,  34.135952,-117.873026,,,0,
01250,,"Foothill Blvd and Indian Hill Blvd E",,  34.106957,-117.720979,,,0,
01252,,"Foothill Blvd and Indian Hill Blvd W",,  34.107190,-117.720757,,,0,
01253,,"Foothill Blvd and Irwindale Ave E",,  34.133574,-117.932954,,,0,
01254,,"Irwindale Ave and Foothill Blvd S",,  34.133239,-117.933694,,,0,
01255,,"Foothill Blvd and Irwindale Ave W",,  34.133777,-117.933231,,,0,
01257,,"Foothill Blvd and Live Oak Ave S",,  34.135995,-117.855000,,,0,
01258,,"Foothill Blvd and Live Oak Ave N",,  34.136146,-117.855181,,,0,
01261,,"Foothill Blvd and Lone Hill Ave S",,  34.136076,-117.828821,,,0,
01265,,"Foothill Blvd and Loraine Ave S",,  34.135998,-117.845968,,,0,
01266,,"Foothill Blvd and Loraine Ave N",,  34.136182,-117.846100,,,0,
01270,,"Foothill Blvd and Mills Ave E",,  34.106841,-117.706782,,,0,
01272,,"Mills Ave and Foothill Blvd",,  34.107330,-117.707077,,,0,
01273,,"Foothill Blvd and Mills Ave W",,  34.107128,-117.707504,,,0,
01275,,"Foothill Blvd and Minnesota Ave S",,  34.136003,-117.861725,,,0,
01276,,"Foothill Blvd and Minnesota Ave N",,  34.136126,-117.861401,,,0,
01280,,"Foothill Blvd and Mountain Ave E",,  34.106973,-117.729334,,,0,
01283,,"Foothill Blvd and Mountain Ave W",,  34.107191,-117.728719,,,0,
01284,,"Foothill Blvd and Orange Ave E",,  34.133465,-117.912420,,,0,
01287,,"Foothill Blvd and Orange Ave W",,  34.133671,-117.912473,,,0,
01290,,"Foothill Blvd and Pasadena Ave E",,  34.133405,-117.902758,,,0,
01291,,"Foothill Blvd and Pasadena Ave W",,  34.133638,-117.902272,,,0,
01292,,"Foothill Blvd and Ramona Ave E",,  34.121396,-117.789652,,,0,
01293,,"Foothill Blvd and Rosemead Blvd W",,  34.150280,-118.073949,,,0,
01295,,"Foothill Blvd and Rockvale Ave E",,  34.133416,-117.896575,,,0,
01296,,"Foothill Blvd and San Dimas Ave E",,  34.124493,-117.806611,,,0,
01297,,"Foothill Blvd and San Dimas Ave W",,  34.124808,-117.807334,,,0,
01298,,"Foothill Blvd and San Dimas Canyon Rd E",,  34.122393,-117.794381,,,0,
01299,,"Foothill Blvd and San Dimas Canyon Rd W",,  34.122682,-117.794793,,,0,
01300,,"Foothill Blvd and San Gabriel Blvd E",,  34.133462,-117.908405,,,0,
01301,,"Foothill Blvd and San Gabriel Blvd N",,  34.133459,-117.908907,,,0,
01303,,"Foothill Blvd and San Gabriel Blvd W",,  34.133641,-117.909300,,,0,
01304,,"Foothill Blvd and Sierra Madre Villa Ave W",,  34.150170,-118.082095,,,0,
01308,,"Foothill Blvd and Sumner Ave E",,  34.107063,-117.741381,,,0,
01309,,"Foothill Blvd and Sumner Ave W",,  34.107221,-117.742319,,,0,
01310,,"Foothill Blvd and Sunnyslope Ave W",,  34.150048,-118.090838,,,0,
01311,,"Foothill Blvd and Todd Ave E",,  34.133525,-117.924461,,,0,
01314,,"Foothill Blvd and Todd Ave W",,  34.133731,-117.924663,,,0,
01316,,"Foothill Blvd and Towne Ave E",,  34.107008,-117.736397,,,0,
01318,,"Foothill Blvd and Towne Ave W",,  34.107199,-117.737242,,,0,
01319,,"Foothill Blvd and Towne Center Dr E",,  34.110842,-117.757871,,,0,
01322,,"Foothill Blvd and Towne Center Dr W",,  34.111303,-117.758683,,,0,
01323,,"Foothill Blvd and Valenica St",,  34.135922,-117.876671,,,0,
01324,,"Foothill Blvd and Valencia St W",,  34.136082,-117.876661,,,0,
01325,,"Foothill Blvd and Valley Center Ave E",,  34.136046,-117.837148,,,0,
01327,,"Foothill Blvd and Valley Center Ave N",,  34.136205,-117.838196,,,0,
01329,,"Foothill Blvd and Vernon Ave E",,  34.133494,-117.915427,,,0,
01332,,"Foothill Blvd and Vernon Ave W",,  34.133670,-117.915846,,,0,
01337,,"Foothill Blvd and Walnut Ave E",,  34.123888,-117.802489,,,0,
01338,,"Foothill Blvd and Longhorn Rd W",,  34.124394,-117.804172,,,0,
01342,,"Foothill Blvd and Wheeler Ave W",,  34.117596,-117.777450,,,0,
01344,,"Foothill Blvd and Gordon Ave S",,  34.136071,-117.833226,,,0,
01345,,"Foothill Blvd and Whispering Oaks Dr N",,  34.136230,-117.832452,,,0,
01347,,"Foothill Blvd and White Ave E",,  34.111815,-117.760871,,,0,
01351,,"Foothill Blvd and Woodglen Dr E",,  34.124992,-117.809362,,,0,
01353,,"Foothill Blvd and Woodglen Dr W",,  34.125351,-117.810306,,,0,
01354,,"Francisquito Ave and Baldwin Park Blvd E",,  34.071049,-117.977601,,,0,
01355,,"Francisquito Ave and Baldwin Park Blvd W",,  34.071692,-117.978242,,,0,
01358,,"Francisquito and California Ave E",,  34.050376,-117.949474,,,0,
01359,,"Francisquito Ave and Dalewood St W",,  34.067374,-117.972359,,,0,
01360,,"Francisquito Ave and Frazier St E",,  34.074924,-117.982880,,,0,
01361,,"Francisquito Ave and Frazier St W",,  34.074732,-117.982332,,,0,
01362,,"Francisquito and Hacienda W",,  34.048944,-117.947282,,,0,
01363,,"Francisquito and Orange E",,  34.057371,-117.958942,,,0,
01364,,"Francisquito and Orange W",,  34.057266,-117.958602,,,0,
01365,,"Francisquito and Puente E",,  34.063993,-117.968018,,,0,
01366,,"Francisquito and Puente W",,  34.064152,-117.967959,,,0,
01368,,"Francisquito and Sunset E",,  34.053659,-117.953892,,,0,
01369,,"Francisquito and Sunset W",,  34.053626,-117.953579,,,0,
01370,,"Francisquito Ave and Vineland Ave E",,  34.067850,-117.973260,,,0,
01371,,"Francisquito and Willow E",,  34.060862,-117.963658,,,0,
01372,,"Francisquito and Willow W",,  34.061120,-117.963823,,,0,
01374,,"Covina Metrolink (Front and Citrus Ave N)",,  34.091659,-117.889902,,,0,
01375,,"Covina Metrolink (Front and Citrus Ave S)",,  34.091514,-117.889796,,,0,
01377,,"Gale Ave and Seventh Ave S",,  34.019624,-117.987366,,,0,
01380,,"Gale Ave and Azusa Ave N",,  34.000174,-117.931136,,,0,
01381,,"Gale Ave and Azusa Ave S",,  34.000293,-117.931117,,,0,
01382,,"Gale Ave and Bixby Dr N",,  34.004601,-117.944396,,,0,
01383,,"Gale Ave and Bixby Dr S",,  34.004740,-117.944394,,,0,
01386,,"Gale Ave and Fieldgate Ave N",,  34.006552,-117.948882,,,0,
01387,,"Gale Ave and Fieldgate Ave S",,  34.006604,-117.948627,,,0,
01388,,"Gale Ave and Green Dr N",,  34.001467,-117.937520,,,0,
01390,,"Gale Ave and Green Dr S",,  34.001591,-117.937392,,,0,
01393,,"Gale Ave and Hinnen Ave N",,  34.007902,-117.953442,,,0,
01395,,"Gale Ave and John Reed Ct N",,  34.002431,-117.940006,,,0,
01396,,"Gale Ave and John Reed Ct S",,  34.002597,-117.940056,,,0,
01398,,"Gale Ave and Post Office N",,  34.013312,-117.970687,,,0,
01399,,"Gale Ave and Kwis Ave S",,  34.012958,-117.970275,,,0,
01402,,"Gale Ave and Latchford Ave. N",,  34.018604,-117.984453,,,0,
01406,,"Gale Ave and Ninth Ave N",,  34.016669,-117.979728,,,0,
01407,,"Gale Ave and Ninth Ave S",,  34.016644,-117.980051,,,0,
01408,,"Gale Ave and Stimson Ave N",,  34.008773,-117.956374,,,0,
01409,,"Gale Ave and Stimson Ave S",,  34.008699,-117.955712,,,0,
01411,,"Gale Ave and Turnbull Canyon Rd N",,  34.014926,-117.975432,,,0,
01412,,"Gale Ave and Turnbull Canyon Rd S",,  34.014695,-117.975320,,,0,
01416,,"Garey Ave and 3rd St N",,  34.057105,-117.750080,,,0,
01418,,"Garey Ave and 9th St N",,  34.051233,-117.749840,,,0,
01419,,"Garey Ave and 9th St S",,  34.051662,-117.750017,,,0,
01420,,"Garey Ave and Aliso St N",,  34.081132,-117.752663,,,0,
01421,,"Garey Ave and Aliso St S",,  34.081004,-117.752819,,,0,
01422,,"Garey Ave and Alvarado N",,  34.068065,-117.751943,,,0,
01423,,"Garey Ave and Alvarado St S",,  34.067463,-117.752043,,,0,
01424,,"Garey Ave and Arrow Hwy N",,  34.090462,-117.748907,,,0,
01425,,"Garey Ave and Arrow Hwy S",,  34.089173,-117.749875,,,0,
01427,,"Garey Ave and Bonita Ave N",,  34.096056,-117.748454,,,0,
01428,,"Garey Ave and Bonita Ave S",,  34.095902,-117.748722,,,0,
01431,,"Garey Ave and Foothill S",,  34.107496,-117.748730,,,0,
01433,,"Garey Ave and Franklin N",,  34.040405,-117.749440,,,0,
01434,,"Garey Ave and Franklin S",,  34.040345,-117.749609,,,0,
01436,,"Garey Ave and Grand N",,  34.047644,-117.749725,,,0,
01437,,"Garey Ave and Grand S",,  34.048031,-117.749893,,,0,
01438,,"Garey Ave and Grove N",,  34.103459,-117.748498,,,0,
01439,,"Garey Ave and Grove St S",,  34.102921,-117.748737,,,0,
01440,,"Garey Ave and Harrison N",,  34.099131,-117.748428,,,0,
01441,,"Garey Ave and Harrison S",,  34.099356,-117.748689,,,0,
01443,,"Garey Ave and Holt Ave N",,  34.062637,-117.750255,,,0,
01445,,"Garey Ave and Jefferson N",,  34.069994,-117.752013,,,0,
01446,,"Garey Ave and Jefferson Ave S",,  34.069890,-117.752191,,,0,
01447,,"Garey Ave and La Verne N",,  34.086276,-117.751043,,,0,
01448,,"Garey Ave and La Verne Ave S",,  34.085384,-117.751752,,,0,
01449,,"Garey Ave and Lexington N",,  34.037053,-117.749335,,,0,
01450,,"Garey Ave and Lexington S",,  34.036523,-117.749495,,,0,
01451,,"Garey Ave and McKinley N",,  34.074490,-117.752132,,,0,
01452,,"Garey Ave and McKinley S",,  34.074619,-117.752349,,,0,
01453,,"Garey Ave and Mission Blvd N",,  34.055726,-117.749965,,,0,
01454,,"Garey Ave and Mission S",,  34.054751,-117.750166,,,0,
01455,,"Garey Ave and Olive N",,  34.029949,-117.749052,,,0,
01456,,"Garey Ave and Olive S",,  34.029380,-117.749222,,,0,
01457,,"Garey Ave and Orange Grove N",,  34.073218,-117.752132,,,0,
01458,,"Garey Ave and Orange Grove Ave S",,  34.072127,-117.752274,,,0,
01459,,"Garey Ave and Rio Rancho Rd S",,  34.032890,-117.749337,,,0,
01460,,"Garey Ave and Philadelphia St N",,  34.033675,-117.749196,,,0,
01461,,"Garey Ave and Phillips N",,  34.044547,-117.749596,,,0,
01462,,"Garey Ave and Phillips S",,  34.043761,-117.749724,,,0,
01463,,"Garey Ave and 3rd St",,  34.057026,-117.750189,,,0,
01465,,"Garey Ave and Willow N",,  34.078686,-117.752370,,,0,
01466,,"Garey Ave and Willow St S",,  34.078362,-117.752500,,,0,
01467,,"Garvey Ave and Durfee Ave E",,  34.063535,-118.011997,,,0,
01468,,"Garvey Ave and Durfee Ave W",,  34.063809,-118.011843,,,0,
01469,,"Dalewood St and Garden View Ln N",,  34.069498,-117.961534,,,0,
01470,,"Garvey Ave and Lexington Ave E",,  34.062749,-118.039524,,,0,
01471,,"Garvey Ave and Lexington Ave W",,  34.062938,-118.039695,,,0,
01472,,"Garvey Ave and Meeker Ave E",,  34.062752,-118.026158,,,0,
01473,,"Garvey Ave and Meeker Ave W",,  34.062892,-118.026406,,,0,
01474,,"Garvey Ave and Mountain View Rd E",,  34.062742,-118.022213,,,0,
01475,,"Garvey Ave and Mountain View Rd W",,  34.062943,-118.021381,,,0,
01476,,"Garvey Ave and Peck Rd E",,  34.062762,-118.030847,,,0,
01477,,"Garvey Ave and Peck Rd W",,  34.062949,-118.030200,,,0,
01478,,"Garvey Ave and Santa Anita Ave E",,  34.062668,-118.041567,,,0,
01479,,"Garvey Ave and Tyler Ave E",,  34.062761,-118.035449,,,0,
01480,,"Garvey Ave and Tyler Ave W",,  34.062940,-118.035397,,,0,
01481,,"Garvey Ave and Valley Blvd E",,  34.062770,-118.018693,,,0,
01482,,"Garvey Ave and Valley Blvd W",,  34.062963,-118.018673,,,0,
01484,,"Gateway Center Dr and Golden Springs Dr E",,  34.000636,-117.832651,,,0,
01485,,"Gladstone St and Bonnie Cove Ave E",,  34.113839,-117.854751,,,0,
01488,,"Gladstone St and Bonnie Cove Ave W",,  34.114031,-117.854800,,,0,
01490,,"Gladstone St and Rimhurst Ave",,  34.113984,-117.861371,,,0,
01492,,"Gladstone St and Rimhurst Ave S",,  34.113893,-117.861279,,,0,
01493,,"Gladstone St and Sunflower Ave E",,  34.113867,-117.846782,,,0,
01496,,"Gladstone St and Sunflower Ave W",,  34.114005,-117.846871,,,0,
01497,,"Glendora Ave  and Cameron Ave N",,  34.061719,-117.931466,,,0,
01498,,"Glendora Ave and Ada Ave N",,  34.132597,-117.865431,,,0,
01499,,"Glendora Ave and Ada Ave S",,  34.132171,-117.865429,,,0,
01500,,"Glendora Ave and Arrow Hwy N",,  34.106240,-117.863720,,,0,
01501,,"Glendora Ave and Arrow Hwy S",,  34.106164,-117.863928,,,0,
01502,,"Glendora Ave and Badillo St N",,  34.085991,-117.863710,,,0,
01503,,"Glendora Ave and Badillo St S",,  34.085876,-117.863901,,,0,
01505,,"Glendora Ave and Cameron Ave S",,  34.061791,-117.931694,,,0,
01508,,"Glendora Ave and Cienega Ave N",,  34.103624,-117.863727,,,0,
01509,,"Glendora Ave and Cienega Ave S",,  34.102330,-117.863934,,,0,
01511,,"Glendora Ave and Covina Blvd S",,  34.099055,-117.863926,,,0,
01512,,"Glendora Ave and Cypress St N",,  34.095504,-117.863721,,,0,
01513,,"Glendora Ave and Cypress St S",,  34.096002,-117.863918,,,0,
01514,,"Glendora Ave and Dawson Ave E",,  34.117175,-117.864462,,,0,
01515,,"Glendora Ave and Dawson Ave W",,  34.117422,-117.864273,,,0,
01516,,"Glendora Ave and Foothill Blvd N",,  34.135771,-117.865390,,,0,
01517,,"Glendora Ave and Foothill Blvd S",,  34.135691,-117.865549,,,0,
01519,,"Hacienda Blvd and Francisquito Ave S",,  34.048075,-117.946798,,,0,
01522,,"Glendora Ave and Hill St S",,  34.026685,-117.951099,,,0,
01523,,"Glendora Ave and Hong Kong Plaza S",,  34.058050,-117.935814,,,0,
01524,,"Hacienda Blvd and Maplegrove St S",,  34.045568,-117.949157,,,0,
01526,,"Glendora Ave and Merced Ave S",,  34.055400,-117.938754,,,0,
01529,,"Glendora Ave and Michelle St S",,  34.053266,-117.941163,,,0,
01532,,"Glendora Ave and Nelson Ave S",,  34.023045,-117.952784,,,0,
01534,,"Glendora Ave and Dexter St S",,  34.083342,-117.863889,,,0,
01535,,"Glendora Ave and Route 66 N",,  34.129262,-117.863728,,,0,
01536,,"Glendora Ave and Route 66 S",,  34.128413,-117.863911,,,0,
01537,,"Glendora Ave and Rowland St N",,  34.023499,-117.952344,,,0,
01538,,"Glendora Ave and Ruddock St N",,  34.089687,-117.863723,,,0,
01539,,"Glendora Ave and Ruddock St S",,  34.089498,-117.863902,,,0,
01540,,"Glendora Ave and Mayor Dave Way S",,  34.020272,-117.954175,,,0,
01542,,"Hacienda Blvd and Unruh Ave S",,  34.041649,-117.949638,,,0,
01543,,"Glendora Ave and Vine Ave E",,  34.057748,-117.935828,,,0,
01545,,"Glendora Ave and Wingate St N",,  34.092240,-117.863729,,,0,
01546,,"Glendora Ave and Wingate St S",,  34.092152,-117.863921,,,0,
01548,,"Golden Springs Dr and Adel E",,  34.000694,-117.840595,,,0,
01549,,"Golden Springs Dr and Adel W",,  34.000932,-117.840133,,,0,
01550,,"Golden Springs Dr and Avenida Rancheros S",,  34.037455,-117.795088,,,0,
01551,,"Golden Springs Dr and Brea Canyon Rd E",,  34.000074,-117.843638,,,0,
01552,,"Golden Springs Dr and Brea Canyon Rd W",,  33.999763,-117.844856,,,0,
01553,,"Golden Springs Dr and Calbourne Dr W",,  33.994251,-117.858475,,,0,
01554,,"Golden Springs Dr and Carpio N",,  34.026636,-117.796504,,,0,
01555,,"Golden Springs Dr and Carpio S",,  34.026722,-117.796678,,,0,
01556,,"Golden Springs Dr and Diamond Bar Blvd N",,  34.019121,-117.808151,,,0,
01557,,"Golden Springs Dr and Diamond Bar Blvd S",,  34.019354,-117.808081,,,0,
01558,,"Golden Springs Dr and Ballena S",,  34.024427,-117.800269,,,0,
01564,,"Golden Springs Dr and Golden Prados N",,  34.011507,-117.814049,,,0,
01565,,"Golden Springs Dr and Golden Prados S",,  34.011897,-117.813929,,,0,
01568,,"Golden Springs Dr and Grand Ave N",,  34.007255,-117.820594,,,0,
01571,,"Golden Springs Dr and High Knob Road N",,  34.035399,-117.796261,,,0,
01572,,"Golden Springs Dr and High Knob Road S",,  34.035344,-117.796506,,,0,
01573,,"Golden Springs Dr and Lemon Ave E",,  33.997012,-117.854020,,,0,
01574,,"Golden Springs Dr and Lemon W",,  33.996942,-117.854733,,,0,
01576,,"Golden Springs Dr and Racquet Club N",,  34.008768,-117.817862,,,0,
01577,,"Golden Springs Dr and Racquet Club S",,  34.008648,-117.818377,,,0,
01579,,"Golden Springs Dr and Rapid View E",,  33.998314,-117.851068,,,0,
01580,,"Golden Springs Dr and Rapid View W",,  33.998501,-117.851183,,,0,
01583,,"Golden Springs Dr and Sabana Dr",,  34.015994,-117.811808,,,0,
01585,,"Golden Springs Dr and Sabana Dr S",,  34.016436,-117.811724,,,0,
01587,,"Golden Springs Dr and Ballena N",,  34.024358,-117.800124,,,0,
01588,,"Golden Springs Dr and Sunset Crossing N",,  34.033271,-117.797230,,,0,
01589,,"Golden Springs Dr and Sunset Crossing S",,  34.032853,-117.797409,,,0,
01590,,"Golden Springs Dr and Sylvan Glen N",,  34.029188,-117.795880,,,0,
01591,,"Golden Springs Dr and Sylvan Glen S",,  34.029210,-117.796075,,,0,
01596,,"Grand Ave and 2nd St W",,  34.054370,-118.250127,,,0,
01600,,"Grand Ave and 7th St W",,  34.047075,-118.256885,,,0,
01602,,"Grand Ave and 9th St W",,  34.043991,-118.259729,,,0,
01603,,"Grand Ave and Ada Ave E",,  34.132720,-117.872532,,,0,
01604,,"Grand Ave and Ada Ave W",,  34.132083,-117.872755,,,0,
01606,,"Grand Ave and Arrow Hwy  E",,  34.105937,-117.872501,,,0,
01607,,"Grand Ave and Arrow Hwy W",,  34.105835,-117.872722,,,0,
01610,,"Grand Ave and Wanamaker Dr E",,  34.086685,-117.872424,,,0,
01611,,"Grand Ave and Badillo St W",,  34.085551,-117.872655,,,0,
01612,,"Grand Ave and Base Line Rd E",,  34.122372,-117.872558,,,0,
01613,,"Grand Ave and Base Line Rd W",,  34.121767,-117.872784,,,0,
01614,,"Grand Ave and Bennett Ave S",,  34.140395,-117.872699,,,0,
01615,,"Grand Ave and Cienega Ave E",,  34.103430,-117.872475,,,0,
01616,,"Grand Ave and Cienega Ave W",,  34.103406,-117.872696,,,0,
01618,,"Grand Ave and Covina Blvd  E",,  34.099649,-117.872470,,,0,
01619,,"Grand Ave and Covina Blvd  W",,  34.099037,-117.872693,,,0,
01620,,"Grand Ave and Cypress St E",,  34.096160,-117.872453,,,0,
01621,,"Grand Ave and Cypress St W",,  34.095272,-117.872705,,,0,
01622,,"Grand Ave and Dawson Ave E",,  34.117153,-117.872536,,,0,
01623,,"Grand Ave and Dawson Ave W",,  34.116307,-117.872779,,,0,
01624,,"Grand Ave and Gladstone St E",,  34.113735,-117.872475,,,0,
01625,,"Grand Ave and Gladstone St W",,  34.113653,-117.872720,,,0,
01627,,"Grand Ave and La Puente Rd",,  34.030493,-117.837443,,,0,
01628,,"Grand Ave and La Puente Rd",,  34.030449,-117.837697,,,0,
01629,,"Grand Ave and Leadora Ave N",,  34.143236,-117.872454,,,0,
01630,,"Grand Ave and Leadora Ave S",,  34.143574,-117.872658,,,0,
01631,,"Grand Ave and Mauna Loa E",,  34.124828,-117.872531,,,0,
01632,,"Grand Ave and Mauna Loa W",,  34.125257,-117.872785,,,0,
01635,,"Grand Ave and Puente St E",,  34.082291,-117.872388,,,0,
01636,,"Grand Ave and Puente St W",,  34.082780,-117.872642,,,0,
01637,,"Grand Ave and Route 66  E",,  34.129148,-117.872515,,,0,
01639,,"Grand Ave and Route 66 W",,  34.127942,-117.872778,,,0,
01640,,"Grand Ave and Covina Hills Rd E",,  34.079246,-117.872379,,,0,
01641,,"Grand Ave and Rowland Ave W",,  34.079170,-117.872624,,,0,
01643,,"Grand Ave and San Bernardino Rd W",,  34.091458,-117.872675,,,0,
01646,,"Grand Ave and Sierra Madre Ave N",,  34.146767,-117.872452,,,0,
01647,,"Grand Ave and Sierra Madre Ave S",,  34.146569,-117.872640,,,0,
01648,,"Grand Ave and Snow Creek Dr",,  34.035893,-117.839799,,,0,
01649,,"Grand Ave and Snow Creek Dr",,  34.034975,-117.839817,,,0,
01650,,"Grand Ave and Amar Rd",,  34.042646,-117.847470,,,0,
01652,,"Grand Ave and Wingate St E",,  34.091571,-117.872447,,,0,
01657,,"Hacienda Blvd and Amar Rd N",,  34.037594,-117.949779,,,0,
01658,,"Hacienda Blvd and Amar Rd S",,  34.037484,-117.950046,,,0,
01659,,"Hacienda Blvd and Colima Rd N",,  33.981745,-117.972921,,,0,
01660,,"Colima Rd and Hacienda Blvd S",,  33.981176,-117.972473,,,0,
01661,,"Hacienda Blvd and Don Julian Rd N",,  34.017645,-117.959532,,,0,
01662,,"Hacienda Blvd and Don Julian Rd S",,  34.017703,-117.959809,,,0,
01663,,"Hacienda Blvd and Fairgrove Ave N",,  34.042007,-117.949334,,,0,
01664,,"Hacienda Blvd and Francisquito E",,  34.048457,-117.946081,,,0,
01666,,"Hacienda Blvd and Gale Ave N",,  34.011076,-117.962746,,,0,
01669,,"Temple Ave and Hacienda Blvd N",,  34.030154,-117.953628,,,0,
01670,,"Hacienda Blvd and Glendora Ave S",,  34.033060,-117.951102,,,0,
01672,,"Hacienda Blvd and Halliburton Rd N",,  33.998041,-117.967351,,,0,
01673,,"Hacienda Blvd and La Subida Dr N",,  33.989507,-117.970082,,,0,
01674,,"Hacienda Blvd and La Subida Dr S",,  33.989490,-117.970374,,,0,
01675,,"Hacienda Blvd and Los Altos Dr N",,  33.986339,-117.971106,,,0,
01676,,"Hacienda Blvd and Los Altos Dr S",,  33.985911,-117.971488,,,0,
01678,,"Hacienda Blvd and Lujon St N",,  34.000970,-117.966340,,,0,
01679,,"Hacienda Blvd and Lujon St S",,  34.001504,-117.966379,,,0,
01681,,"Hacienda Blvd and Maplegrove Ave N",,  34.045838,-117.948744,,,0,
01682,,"Glendora Ave and Merced Ave N",,  34.055743,-117.938044,,,0,
01683,,"Glendora Ave and Michelle St N",,  34.053068,-117.940994,,,0,
01684,,"Hacienda Blvd and Newton St N",,  33.995860,-117.968094,,,0,
01685,,"Hacienda Blvd and Newton St S",,  33.996299,-117.968212,,,0,
01689,,"Hacienda Blvd and Tetley St N",,  33.992725,-117.968530,,,0,
01690,,"Hacienda Blvd and Tetley St S",,  33.992576,-117.968850,,,0,
01692,,"Hacienda Blvd and Three Palms St N",,  34.005105,-117.964910,,,0,
01693,,"Hacienda Blvd and Three Palms St S",,  34.005098,-117.965153,,,0,
01695,,"Hacienda Blvd and Valley Blvd",,  34.020587,-117.957679,,,0,
01696,,"Hacienda Blvd and Valley Blvd",,  34.020420,-117.958234,,,0,
01699,,"Halliburton Rd and Ember Glen Rd E",,  33.992731,-117.947810,,,0,
01700,,"Halliburton Rd and Ember Glen Rd W",,  33.992987,-117.947724,,,0,
01701,,"Halliburton Rd and Stimson Ave E",,  33.996296,-117.963930,,,0,
01702,,"Halliburton Rd and Stimson Ave W",,  33.996455,-117.963217,,,0,
01709,,"Holt Ave and Dudley Ave W",,  34.061813,-117.777074,,,0,
01710,,"Holt Ave and East End Ave E",,  34.062947,-117.723513,,,0,
01714,,"Holt Ave and Fairplex Dr W",,  34.061569,-117.787337,,,0,
01717,,"Holt Ave and Garey Ave N",,  34.062271,-117.749952,,,0,
01718,,"Garey Ave and Holt Ave S",,  34.061939,-117.750416,,,0,
01719,,"Holt Ave and Garey Ave W",,  34.062438,-117.750856,,,0,
01720,,"Holt Ave and Hamilton E",,  34.061963,-117.763649,,,0,
01721,,"Holt Ave and Hamilton W",,  34.062134,-117.763846,,,0,
01722,,"Holt Ave and Indian Hill Blvd W",,  34.063243,-117.719775,,,0,
01723,,"Holt Ave and Lewis W",,  34.061994,-117.769384,,,0,
01725,,"Holt Ave and Palomares St N",,  34.062410,-117.745465,,,0,
01726,,"Holt Ave and Palomares St S",,  34.062566,-117.746458,,,0,
01728,,"Holt Ave and Park Ave E",,  34.062185,-117.754889,,,0,
01729,,"Holt Ave and Park Ave W",,  34.062334,-117.755139,,,0,
01730,,"Holt Ave and Reservoir St E",,  34.062732,-117.733109,,,0,
01731,,"Holt Ave and Arboleda Way",,  34.062882,-117.733716,,,0,
01733,,"Holt Ave and San Antonio Ave S",,  34.062799,-117.737064,,,0,
01734,,"Holt Ave and San Antonio Ave W",,  34.062655,-117.736807,,,0,
01735,,"Holt Ave and Short E",,  34.061399,-117.786514,,,0,
01737,,"Holt Ave and Towne Ave N",,  34.062519,-117.740978,,,0,
01738,,"Holt Ave and Towne Ave S",,  34.062677,-117.741908,,,0,
01740,,"Valley Blvd and Vineland Ave",,  34.047395,-117.992845,,,0,
01741,,"Holt Ave and Union W",,  34.061663,-117.783671,,,0,
01743,,"Holt Ave and White Ave E",,  34.062088,-117.758508,,,0,
01744,,"Holt Ave and White Ave W",,  34.062238,-117.759435,,,0,
01745,,"1st St and Hope St E",,  34.056197,-118.249647,,,0,
01747,,"Figueroa St and 3rd St E",,  34.055232,-118.254260,,,0,
01750,,"Hope St and 8th St W",,  34.046278,-118.259350,,,0,
01751,,"Hope St and 9th St W",,  34.044715,-118.260837,,,0,
01752,,"Humane Way and Mission Blvd E",,  34.053458,-117.790054,,,0,
01753,,"Huntington Dr and 1st St E",,  34.140003,-118.027901,,,0,
01754,,"Huntington Dr and 1st St W",,  34.140167,-118.028935,,,0,
01755,,"Huntington Dr and 2nd St E",,  34.140064,-118.024593,,,0,
01756,,"Huntington Dr and 2nd St W",,  34.140231,-118.024633,,,0,
01757,,"Huntington Dr and 5th St E",,  34.140106,-118.020247,,,0,
01758,,"Huntington Dr and 5th St W",,  34.140342,-118.019976,,,0,
01759,,"Huntington Dr and Baldwin Ave E",,  34.131577,-118.054119,,,0,
01760,,"Huntington Dr and Baldwin Ave W",,  34.131904,-118.054905,,,0,
01761,,"Huntington Dr and Elmhurst Ave E",,  34.139614,-117.959493,,,0,
01762,,"Huntington Dr and Bradbourne Ave W",,  34.139848,-117.959496,,,0,
01764,,"Huntington Dr and Brycedale Ave E",,  34.139561,-117.974671,,,0,
01767,,"Huntington Dr and Buena Vista St E",,  34.139509,-117.977211,,,0,
01768,,"Huntington Dr and Buena Vista St W",,  34.139743,-117.977940,,,0,
01769,,"Huntington Dr and California Ave E",,  34.140435,-117.995270,,,0,
01770,,"Huntington Dr and California Ave W",,  34.140602,-117.995947,,,0,
01771,,"Huntington Dr and Centennial Way E",,  34.135919,-118.039248,,,0,
01772,,"Huntington Dr and Crestfield Dr E",,  34.139678,-117.951875,,,0,
01773,,"Huntington Dr and Crestfield Dr W",,  34.139881,-117.951951,,,0,
01775,,"Rosemead Blvd and Huntington Dr W",,  34.131101,-118.073014,,,0,
01776,,"Huntington Dr and Sunset Blvd W",,  34.131093,-118.065638,,,0,
01777,,"Huntington Dr and Highland Ave E",,  34.139606,-117.966426,,,0,
01780,,"Huntington Dr and Highland Ave W",,  34.139771,-117.967322,,,0,
01781,,"Huntington Dr and Holly Ave  E",,  34.131476,-118.046185,,,0,
01782,,"Huntington Dr and Santa Anita Medical Plaza W",,  34.134747,-118.042594,,,0,
01784,,"Huntington Dr and Holly Ave W",,  34.131866,-118.046525,,,0,
01785,,"Huntington Dr and Las Lomas Rd E",,  34.139011,-117.947143,,,0,
01786,,"Huntington Dr and Las Lomas Rd W",,  34.139285,-117.947275,,,0,
01787,,"Huntington Dr and Magnolia Ave E",,  34.140316,-118.005452,,,0,
01788,,"Huntington Dr and Magnolia Ave W",,  34.140487,-118.005551,,,0,
01789,,"Huntington Dr and Mayflower Ave E",,  34.140223,-118.010059,,,0,
01790,,"Huntington Dr and Mayflower Ave W",,  34.140431,-118.009371,,,0,
01791,,"Huntington Dr and Monterey Ave E",,  34.140145,-118.013681,,,0,
01792,,"Huntington Dr and Monterey Ave W",,  34.140373,-118.015201,,,0,
01793,,"Huntington Dr and Mount Olive Dr E",,  34.139662,-117.955058,,,0,
01794,,"Huntington Dr and Mount Olive Dr W",,  34.139880,-117.956029,,,0,
01798,,"Huntington Dr and Mountain Ave W",,  34.139662,-117.986684,,,0,
01799,,"Huntington Dr and Mountain Ave E",,  34.139467,-117.986760,,,0,
01800,,"Huntington Dr and Mountain Vista Plaza E",,  34.139507,-117.983036,,,0,
01801,,"Huntington Dr and Mountain Vista Plaza W",,  34.139678,-117.983819,,,0,
01803,,"Huntington Dr and Myrtle Ave E",,  34.140377,-117.999731,,,0,
01804,,"Huntington Dr and Myrtle Ave",,  34.140547,-118.001337,,,0,
01806,,"Huntington Dr and Pops Rd E",,  34.139578,-117.968864,,,0,
01812,,"Huntington Dr and Santa Anita Ave E",,  34.139963,-118.031252,,,0,
01814,,"Huntington Dr and Santa Clara St E",,  34.139879,-118.034733,,,0,
01815,,"Huntington Dr and Santa Clara St W",,  34.140111,-118.034874,,,0,
01816,,"Huntington Dr and Shamrock Ave E",,  34.140456,-117.990405,,,0,
01817,,"Huntington Dr and Shamrock Ave W",,  34.140662,-117.990488,,,0,
01823,,"Indian Hill Blvd and 10th St W",,  34.103404,-117.720182,,,0,
01825,,"Indian Hill Blvd and American Ave N",,  34.079867,-117.719181,,,0,
01826,,"Indian Hill Blvd and American Ave S",,  34.078743,-117.719383,,,0,
01828,,"Indian Hill Blvd and Arrow Hwy E",,  34.090172,-117.719092,,,0,
01829,,"Indian Hill Blvd and Arrow Hwy N",,  34.090869,-117.719184,,,0,
01830,,"Indian Hill Blvd and Arrow Hwy S",,  34.089985,-117.719401,,,0,
01833,,"Indian Hill Blvd and Bonita Ave E",,  34.096201,-117.719417,,,0,
01834,,"Indian Hill Blvd and Bonita Ave N",,  34.096950,-117.719226,,,0,
01835,,"Indian Hill Blvd and Bonita Ave S",,  34.097168,-117.719394,,,0,
01841,,"Indian Hill Blvd and Elmcroft Ave W",,  34.072712,-117.719350,,,0,
01845,,"Indian Hill Blvd and Holt Ave E",,  34.065459,-117.719065,,,0,
01846,,"Indian Hill Blvd and Kingsley St E",,  34.067389,-117.719144,,,0,
01847,,"Indian Hill Blvd and Kingsley St W",,  34.066617,-117.719328,,,0,
01848,,"Indian Hill Blvd and Oak Park Dr N",,  34.087228,-117.719173,,,0,
01851,,"Indian Hill Blvd and San Bernardino Ave E",,  34.075704,-117.719165,,,0,
01853,,"Indian Hill Blvd and San Jose Ave N",,  34.082991,-117.719167,,,0,
01854,,"Indian Hill Blvd and San Jose Ave S",,  34.082876,-117.719385,,,0,
01857,,"Indian Hill Blvd and Santa Fe St E",,  34.093559,-117.719191,,,0,
01861,,"Indian Hill Blvd and Santa Fe St W",,  34.093128,-117.719407,,,0,
01866,,"Indian Hill Blvd and Vista Dr S",,  34.086479,-117.719370,,,0,
01869,,"Industry City Hall Park and Ride",,  34.021718,-117.954290,,,0,
01870,,"Irwindale Ave and Arrow Hwy N",,  34.107547,-117.934052,,,0,
01871,,"Irwindale Ave and Arrow Hwy S",,  34.107615,-117.934293,,,0,
01872,,"Irwindale Ave and Badillo St N",,  34.087070,-117.934035,,,0,
01873,,"Irwindale Ave and Badillo St S",,  34.087138,-117.934246,,,0,
01874,,"Irwindale Ave and Queenside Dr N",,  34.093185,-117.934113,,,0,
01875,,"Irwindale Ave and Queenside Dr S",,  34.093416,-117.934266,,,0,
01876,,"Irwindale Ave and Cypress St N",,  34.096492,-117.934047,,,0,
01877,,"Irwindale Ave and Cypress St S",,  34.096270,-117.934348,,,0,
01879,,"Irwindale Ave and Gateway Bus Ct N",,  34.124996,-117.933618,,,0,
01880,,"Irwindale Ave and Gateway Bus Ct S",,  34.124910,-117.933909,,,0,
01881,,"Irwindale Ave and Gladstone St N",,  34.114662,-117.933864,,,0,
01882,,"Irwindale Ave and Gladstone St S",,  34.113618,-117.934130,,,0,
01883,,"Irwindale Ave and Calle del Norte N",,  34.105203,-117.934060,,,0,
01884,,"Irwindale Ave and Juarez St S",,  34.105060,-117.934318,,,0,
01886,,"Irwindale Ave and Tapia St S",,  34.100815,-117.934368,,,0,
01887,,"Irwindale Ave and McKinley St N",,  34.119563,-117.933788,,,0,
01888,,"Irwindale Ave and McKinley Ave S",,  34.119486,-117.934006,,,0,
01889,,"Irwindale Ave and San Bernardino Rd N",,  34.089559,-117.934033,,,0,
01890,,"Irwindale Ave and San Bernardino Rd S",,  34.090010,-117.934287,,,0,
01893,,"La Habra Blvd and Beach Blvd S",,  33.931769,-117.966753,,,0,
01894,,"La Puente Rd and  Lemon W",,  34.020194,-117.866338,,,0,
01895,,"La Puente Rd and Citadel E",,  34.021850,-117.860735,,,0,
01896,,"La Puente Rd and Citadel W",,  34.021760,-117.861412,,,0,
01897,,"La Puente Rd and Flemington Dr E",,  34.016896,-117.870940,,,0,
01898,,"La Puente Rd and Flemington Dr W",,  34.017267,-117.870728,,,0,
01899,,"La Puente Rd and Forecastle E",,  34.013471,-117.875628,,,0,
01900,,"La Puente Rd and Forecastle W",,  34.013332,-117.876258,,,0,
01901,,"La Puente Rd and Gartel E",,  34.025126,-117.845793,,,0,
01902,,"La Puente Rd and Gartel W",,  34.025272,-117.845944,,,0,
01905,,"La Puente Rd and Lemon E",,  34.020106,-117.866186,,,0,
01906,,"La Puente Rd and Morningside E",,  34.025629,-117.843310,,,0,
01907,,"La Puente Rd and Morningside W",,  34.026070,-117.842174,,,0,
01908,,"La Puente Rd and Nogales St E",,  34.009973,-117.886053,,,0,
01909,,"La Puente Rd and Pierre E",,  34.023821,-117.852333,,,0,
01910,,"La Puente Rd and Pierre W",,  34.024049,-117.852009,,,0,
01914,,"La Puente Rd and Sentous Ave E",,  34.011259,-117.880356,,,0,
01915,,"La Puente Rd and Sentous Ave W",,  34.011399,-117.880412,,,0,
01916,,"La Puente Rd and Suzanne E",,  34.024455,-117.849249,,,0,
01917,,"La Puente Rd and Suzanne W",,  34.024494,-117.849784,,,0,
01924,,"Live Oak Ave and 10th Ave E",,  34.109897,-118.012420,,,0,
01925,,"Live Oak Ave and 10th Ave W",,  34.110161,-118.011931,,,0,
01926,,"Live Oak Ave and 2nd St W",,  34.108367,-118.024273,,,0,
01928,,"Live Oak and 6th St W",,  34.109239,-118.018182,,,0,
01929,,"Live Oak and Center St E",,  34.109515,-118.015033,,,0,
01931,,"Live Oak Ave and Foss Ave W",,  34.109757,-118.014591,,,0,
01932,,"Live Oak Ave and Greenfield Ave W",,  34.107988,-118.026939,,,0,
01933,,"Live Oak and Hempstead Ave E",,  34.108998,-118.018578,,,0,
01934,,"Live Oak Ave and Longden Ave E",,  34.112005,-117.997703,,,0,
01935,,"Live Oak Ave and Longden Ave W",,  34.111835,-118.000250,,,0,
01936,,"Live Oak Ave and Mayflower Ave E",,  34.110340,-118.009361,,,0,
01937,,"Live Oak Ave and Mayflower Ave W",,  34.110713,-118.007997,,,0,
01938,,"Live Oak Ave and Myrtus Ave E",,  34.107688,-118.027613,,,0,
01939,,"Live Oak Ave and Peck Rd E",,  34.111098,-118.004033,,,0,
01940,,"Live Oak Ave and Myrtle Ave W",,  34.111139,-118.005037,,,0,
01941,,"Live Oak Ave and Santa Anita Ave E",,  34.107302,-118.030404,,,0,
01944,,"Live Oak and Tyler Ave E",,  34.108081,-118.024904,,,0,
01948,,"Lone Hill Ave and Gladstone St N",,  34.114286,-117.828802,,,0,
01949,,"Lone Hill Ave and Kenoma St E",,  34.124992,-117.829058,,,0,
01950,,"Lone Hill Ave and Kenoma St W",,  34.125555,-117.828799,,,0,
01951,,"Lone Hill Ave and Las Colinas S",,  34.110158,-117.828520,,,0,
01952,,"Lone Hill Ave and Overland Ct W",,  34.110295,-117.828262,,,0,
01954,,"Lone Hill Ave and Palopinto Ave N",,  34.132644,-117.828781,,,0,
01955,,"Lone Hill Ave and Palopinto Ave S",,  34.132606,-117.828920,,,0,
01957,,"Lone Hill Ave and Petunia St E",,  34.122738,-117.829056,,,0,
01958,,"Lone Hill Ave and Petunia St W",,  34.122741,-117.828792,,,0,
01959,,"Lone Hill Ave and Route 66 E",,  34.127849,-117.829079,,,0,
01960,,"Lone Hill Ave and Route 66 S",,  34.128885,-117.828948,,,0,
01965,,"Lone Hill Park and Ride  W",,  34.119899,-117.828801,,,0,
01968,,"Los Angeles St and Center St E",,  34.092043,-117.978174,,,0,
01969,,"Los Angeles St and Hornbrook Ave E",,  34.091955,-117.982144,,,0,
01970,,"Lower Azusa Rd and Durfee Ave E",,  34.087846,-118.002228,,,0,
01979,,"Los Angeles St and Merced Ave E",,  34.092116,-117.973509,,,0,
01980,,"Merced Ave and Meeker Ave N",,  34.067657,-117.954598,,,0,
01983,,"Merced Ave and Orange Ave N",,  34.064795,-117.950565,,,0,
01984,,"Merced Ave and Puente Ave N",,  34.072086,-117.960592,,,0,
01985,,"Merced Ave and S Garvey Ave N",,  34.069892,-117.957611,,,0,
01987,,"Merced Ave and Vineland Ave N",,  34.075506,-117.965243,,,0,
01988,,"Mills Ave and Blaisdel Dr N",,  34.110703,-117.707237,,,0,
01989,,"Mills Ave and Blaisdel Dr S",,  34.111188,-117.707060,,,0,
01990,,"Mills Ave and Chaparral Dr N",,  34.115822,-117.707252,,,0,
01991,,"Mills Ave and Chaparral Dr S",,  34.116132,-117.707086,,,0,
01992,,"Mills Ave and Radcliffe Dr N",,  34.118801,-117.707242,,,0,
01997,,"Mission Blvd and Buena Vista Ave E",,  34.054577,-117.767849,,,0,
01998,,"Mission Blvd and Buena Vista Ave W",,  34.054758,-117.767822,,,0,
02000,,"Mission Blvd and Dudley St E",,  34.054362,-117.773082,,,0,
02001,,"Mission Blvd and Dudley St W",,  34.054576,-117.773273,,,0,
02005,,"Mission Blvd and Locust St E",,  34.055067,-117.749142,,,0,
02007,,"Mission Blvd and Hamilton Blvd E",,  34.054689,-117.763425,,,0,
02008,,"Mission Blvd and Hamilton Blvd W",,  34.054868,-117.763461,,,0,
02009,,"Humane Way and Mission Blvd W",,  34.052919,-117.789702,,,0,
02014,,"Mission Blvd and Palomares St E",,  34.055118,-117.745923,,,0,
02015,,"Mission Blvd and Palomares St W",,  34.055300,-117.746077,,,0,
02016,,"Mission Blvd and Park Ave E",,  34.054946,-117.754134,,,0,
02017,,"Mission Blvd and Park Ave W",,  34.055063,-117.754936,,,0,
02019,,"Mission Blvd and Rancho Laguna Dr W",,  34.042904,-117.796920,,,0,
02020,,"Mission Blvd and Reservoir St E",,  34.055465,-117.732086,,,0,
02021,,"Reservoir St and Mission Blvd W",,  34.055250,-117.732641,,,0,
02022,,"Mission Blvd and San Antonio Ave E",,  34.055341,-117.737180,,,0,
02023,,"Mission Blvd and San Antonio Ave W",,  34.055523,-117.737288,,,0,
02024,,"Mission Blvd and Towne Ave E",,  34.055230,-117.741703,,,0,
02025,,"Mission Blvd and Towne Ave W",,  34.055412,-117.741765,,,0,
02026,,"Mission Blvd and Cypress St E",,  34.054774,-117.757865,,,0,
02027,,"Mission Blvd and White Ave W",,  34.054971,-117.758607,,,0,
02028,,"Montclair Transit Center",,  34.094957,-117.694923,,,0,
02034,,"Montebello Town Center and Town Center Dr",,  34.036939,-118.086662,,,0,
02035,,"Montebello Blvd and The Shops at Montebello S",,  34.036706,-118.080935,,,0,
02037,,"Moreno St and Fremont Ave E",,  34.088554,-117.693668,,,0,
02039,,"Moreno St and Lindero Ave E",,  34.088554,-117.695825,,,0,
02041,,"Monte Vista Ave and Moreno St W",,  34.090110,-117.698197,,,0,
02042,,"Moreno St and Target Ln W",,  34.088761,-117.691844,,,0,
02043,,"Mountain Ave and Foothill Blvd N",,  34.107387,-117.729048,,,0,
02044,,"Mountain Ave and Foothill Blvd S",,  34.107538,-117.728926,,,0,
02045,,"Mountain Ave and Harrison Ave N",,  34.099784,-117.729093,,,0,
02050,,"Mountain Ave and Huron Dr N",,  34.120635,-117.729041,,,0,
02052,,"Mountain Ave and Pepperdine Ln N",,  34.115353,-117.729049,,,0,
02053,,"Mountain Ave and Scripps Dr S",,  34.116831,-117.728909,,,0,
02054,,"Mountain View Rd and Valley Blvd E",,  34.064144,-118.020470,,,0,
02066,,"Myrtle Ave and Pomona Ave N",,  34.133974,-118.000726,,,0,
02079,,"Nogales St and Amanda St E",,  34.013743,-117.886685,,,0,
02080,,"Nogales St and Daisetta St E",,  33.990367,-117.889181,,,0,
02081,,"Nogales St and Fenmead St E",,  34.006396,-117.887460,,,0,
02084,,"Nogales St and La Puente Rd E",,  34.009924,-117.887069,,,0,
02086,,"Nogales St and San Jose Ave E",,  33.998583,-117.888275,,,0,
02088,,"Nogales St and Shakespeare Dr E",,  34.017006,-117.887928,,,0,
02089,,"Nogales St and Valley Blvd E",,  34.004664,-117.887621,,,0,
02094,,"Olive St and 5th St E",,  34.048787,-118.253174,,,0,
02095,,"Olive St and 7th St E",,  34.046363,-118.255531,,,0,
02106,,"Olive St and Olympic Blvd E",,  34.042398,-118.259377,,,0,
02114,,"Orange Grove Ave and Hamilton Blvd E",,  34.067905,-117.763929,,,0,
02115,,"Orange Grove Ave and Hamilton Blvd W",,  34.068206,-117.763364,,,0,
02118,,"Orange Grove Ave and Lewis St E",,  34.066508,-117.769028,,,0,
02119,,"Orange Grove Ave and Lewis St W",,  34.066700,-117.768978,,,0,
02122,,"Orange Grove Ave and Weber St E",,  34.065770,-117.772530,,,0,
02123,,"Orange Grove Ave and Weber St W",,  34.065893,-117.772595,,,0,
02124,,"Orange Grove Ave and White Ave W",,  34.069383,-117.759920,,,0,
02125,,"Pacific Ave and Garvey Ave E",,  34.073428,-117.944994,,,0,
02127,,"Pacific Ave and Puente Ave E",,  34.078859,-117.951937,,,0,
02145,,"Philadelphia St and Garey Ave W",,  34.033394,-117.748982,,,0,
02147,,"Philadelphia St and San Antonio Ave W",,  34.033737,-117.735865,,,0,
02148,,"Philadelphia St and Towne Ave W",,  34.033576,-117.741064,,,0,
02149,,"Village Loop Rd and Phillips Ranch Rd W",,  34.028740,-117.772756,,,0,
02157,,"Beverly Blvd and Pioneer Blvd S",,  34.003470,-118.062660,,,0,
02158,,"Pomona Transit Center",,  34.059469,-117.751493,,,0,
02163,,"Puente Ave and Amar Rd N",,  34.054765,-117.977629,,,0,
02164,,"Puente Ave and Amar Rd S",,  34.054315,-117.978451,,,0,
02165,,"Puente Ave and Barrydale St N",,  34.062043,-117.970545,,,0,
02166,,"Puente Ave and Barrydale St S",,  34.062081,-117.970835,,,0,
02167,,"Puente Ave and Cagliero St N",,  34.059922,-117.972668,,,0,
02168,,"Puente Ave and Cagliero St S",,  34.059675,-117.973226,,,0,
02169,,"Puente Ave and Channing St S",,  34.076431,-117.955528,,,0,
02171,,"Puente Ave and Dalewood St S",,  34.068347,-117.964199,,,0,
02172,,"Puente Ave and Dutch St N",,  34.076176,-117.955590,,,0,
02173,,"Puente Ave and Francisquito Ave N",,  34.064521,-117.967902,,,0,
02174,,"Puente Ave and Francisquito Ave S",,  34.064642,-117.968137,,,0,
02178,,"Puente Ave and North Garvey Ave N",,  34.072025,-117.959998,,,0,
02179,,"Puente Ave and Merced Ave S",,  34.072091,-117.960183,,,0,
02180,,"Puente Ave and Nelson Ave N",,  34.046814,-117.985283,,,0,
02181,,"Puente Ave and Nelson Ave S",,  34.046929,-117.985501,,,0,
02185,,"Puente Ave and Pacific Ave S",,  34.079151,-117.952750,,,0,
02186,,"Puente Ave and Sauder St N",,  34.056903,-117.975571,,,0,
02187,,"Puente Ave and Sauder St S",,  34.057282,-117.975528,,,0,
02188,,"Puente Ave and South Garvey Ave N",,  34.068325,-117.963876,,,0,
02189,,"Puente Ave and Temple Ave N",,  34.051093,-117.981238,,,0,
02199,,"Puente Hills Mall N",,  33.994008,-117.928843,,,0,
02202,,"Puente St and Barranca Ave N",,  34.082514,-117.880908,,,0,
02207,,"Puente St and Farber Ave N",,  34.082462,-117.867784,,,0,
02208,,"Puente St and Farber Ave S",,  34.082592,-117.868425,,,0,
02209,,"Puente St and Grand Ave N",,  34.082434,-117.872794,,,0,
02210,,"Puente St and Grand Ave S",,  34.082572,-117.872890,,,0,
02212,,"Ramona Blvd and Baldwin Park Blvd E",,  34.085532,-117.964271,,,0,
02215,,"Ramona Blvd and Cogswell Rd E",,  34.075186,-118.013254,,,0,
02216,,"Ramona Blvd and Cogswell Rd W",,  34.075329,-118.013039,,,0,
02219,,"Francisquito Ave and Ramona Blvd E",,  34.079294,-117.988807,,,0,
02222,,"Ramona Blvd and La Madera Ave E",,  34.074743,-118.016975,,,0,
02223,,"Ramona Blvd and La Madera Ave W",,  34.074856,-118.016982,,,0,
02224,,"Ramona Blvd and Lexington Ave E",,  34.071921,-118.039700,,,0,
02228,,"Ramona Blvd and Bogart Ave E",,  34.087113,-117.957243,,,0,
02229,,"Ramona Blvd and Peck Rd E",,  34.074052,-118.022381,,,0,
02230,,"Ramona Blvd and Peck Rd W",,  34.074263,-118.023103,,,0,
02233,,"Ramona Blvd and Tyler Ave E",,  34.072057,-118.035724,,,0,
02235,,"Valley Blvd and Ramona Blvd E",,  34.072198,-118.032644,,,0,
02238,,"Raymond Ave and Union St W",,  34.146671,-118.148834,,,0,
02240,,"Raymond Ave and Walnut St",,  34.148826,-118.148838,,,0,
02241,,"Reservoir St and Ninth St W",,  34.052100,-117.732575,,,0,
02242,,"Reservoir St and Franklin Ave W",,  34.041168,-117.732112,,,0,
02243,,"Reservoir St and Grand Ave W",,  34.047969,-117.732403,,,0,
02244,,"Reservoir St and Lexington Ave W",,  34.037048,-117.732012,,,0,
02245,,"Reservoir St and Philadelphia St W",,  34.034083,-117.731926,,,0,
02246,,"Reservoir St and Phillips Blvd W",,  34.044853,-117.732304,,,0,
02247,,"Richton St and Central Ave E",,  34.095217,-117.690357,,,0,
02248,,"Richton St and Central Ave W",,  34.095152,-117.690635,,,0,
02251,,"Ridgeway St and Valley Blvd E",,  34.061821,-117.795854,,,0,
02255,,"Rio Rancho Rd and Park Ave W",,  34.033470,-117.753425,,,0,
02261,,"Huntington Dr and Rosemead Blvd E",,  34.130213,-118.072355,,,0,
02262,,"Route 66 and Barranca Ave E",,  34.128643,-117.881645,,,0,
02264,,"Route 66 and Barranca Ave W",,  34.128827,-117.880941,,,0,
02265,,"Route 66 and Calera Ave E",,  34.128653,-117.886007,,,0,
02266,,"Route 66 and Calera Ave W",,  34.128793,-117.885878,,,0,
02267,,"Route 66 and Compromise Line Dr W",,  34.129175,-117.831997,,,0,
02269,,"Route 66 and Elwood Ave W",,  34.128903,-117.850541,,,0,
02270,,"Route 66 and Vecino Dr E",,  34.128642,-117.877353,,,0,
02272,,"Route 66 and Glendora Ave E",,  34.128672,-117.864169,,,0,
02273,,"Route 66 and Glendora Ave W",,  34.128826,-117.864274,,,0,
02274,,"Route 66 and Elwood Ave E",,  34.128699,-117.850350,,,0,
02276,,"Route 66 and Grand Ave E",,  34.128658,-117.872135,,,0,
02278,,"Route 66 and Hunters Trail E",,  34.128763,-117.839998,,,0,
02279,,"Route 66 and Hunters Trail W",,  34.129001,-117.839359,,,0,
02282,,"Route 66 and Lone Hill Ave E",,  34.128329,-117.828328,,,0,
02284,,"Route 66 and Lone Hill Ave W",,  34.128449,-117.827686,,,0,
02285,,"Route 66 and Lope Ln E",,  34.128770,-117.830825,,,0,
02286,,"Route 66 and Loraine Ave E",,  34.128709,-117.846848,,,0,
02287,,"Route 66 and Loraine Ave W",,  34.128925,-117.845995,,,0,
02289,,"Route 66 and Grand Ave W",,  34.128843,-117.872419,,,0,
02290,,"Route 66 and Pasadena Ave E",,  34.128667,-117.860488,,,0,
02291,,"Route 66 and Pasadena Ave W",,  34.128882,-117.860672,,,0,
02292,,"Route 66 and Forestdale Ave W",,  34.128820,-117.876583,,,0,
02293,,"Route 66 and Vermont Ave E",,  34.128678,-117.867080,,,0,
02294,,"Route 66 and Vermont Ave W",,  34.128848,-117.867056,,,0,
02295,,"Rowland Ave and Second Ave N",,  34.079036,-117.887812,,,0,
02300,,"Rowland Ave and Azusa Ave N",,  34.079031,-117.907302,,,0,
02301,,"Rowland Ave and Azusa Ave S",,  34.079226,-117.907375,,,0,
02302,,"Rowland Ave and Barranca Ave N",,  34.079001,-117.882096,,,0,
02304,,"Rowland Ave and Citrus Ave W",,  34.079102,-117.890668,,,0,
02307,,"Rowland Ave and Hollenbeck Ave E",,  34.078977,-117.898538,,,0,
02309,,"Rowland Ave and Hollenbeck Ave W",,  34.079176,-117.899360,,,0,
02312,,"Rowland Ave and Lark Ellen Ave N",,  34.079084,-117.916139,,,0,
02313,,"Rowland Ave and Lark Ellen Ave S",,  34.079250,-117.917093,,,0,
02316,,"Rowland Ave and Osborn Ave N",,  34.079070,-117.923401,,,0,
02317,,"Rowland Ave and Osborn Ave S",,  34.079155,-117.922919,,,0,
02322,,"S Campus Dr and Temple Ave W",,  34.050516,-117.816217,,,0,
02325,,"San Antonio Ave and Holt Ave N",,  34.063204,-117.736558,,,0,
02328,,"San Antonio Ave and Kingsley Ave N",,  34.066186,-117.736578,,,0,
02329,,"San Antonio Ave and Kingsley Ave S",,  34.066730,-117.736728,,,0,
02330,,"San Antonio Ave and Lincoln Ave N",,  34.071261,-117.736612,,,0,
02331,,"San Antonio Ave and Lincoln Ave S",,  34.070569,-117.736795,,,0,
02338,,"San Antonio Ave and San Bernardino Ave N",,  34.075946,-117.737301,,,0,
02339,,"San Bernardino Ave and San Antonio S",,  34.075755,-117.736967,,,0,
02373,,"San Dimas Park & Ride",,  34.105278,-117.808617,,,0,
02381,,"San Gabriel Blvd and 3rd St S",,  34.126076,-117.908912,,,0,
02382,,"San Gabriel Blvd and 5th St S",,  34.129708,-117.908958,,,0,
02384,,"San Gabriel Blvd and 1st St S",,  34.122090,-117.907730,,,0,
02385,,"San Gabriel Blvd and Foothill Blvd S",,  34.133168,-117.908914,,,0,
02386,,"San Gabriel Blvd and Sierra Madre Ave",,  34.146415,-117.909009,,,0,place_SMSG
02387,,"San Gabriel Blvd and Colorado Blvd E",,  34.146572,-118.094502,,,0,
02392,,"Santa Anita Ave and Bryant Rd E",,  34.081779,-118.034823,,,0,
02393,,"Santa Anita Ave and Bryant Rd W",,  34.081892,-118.035051,,,0,
02394,,"Santa Anita Ave and Central Ave N",,  34.043792,-118.046308,,,0,
02395,,"Santa Anita Ave and Central Ave S",,  34.044234,-118.046143,,,0,
02398,,"Santa Anita Ave and Daines Dr E",,  34.103599,-118.029692,,,0,
02399,,"Santa Anita Ave and Daines Dr W",,  34.103854,-118.029990,,,0,
02400,,"Santa Anita Ave and Durfee Ave N",,  34.031902,-118.052454,,,0,
02401,,"Santa Anita Ave and Durfee Ave S",,  34.032481,-118.052965,,,0,
02402,,"Santa Anita Ave and Elliot Ave N",,  34.058909,-118.042282,,,0,
02403,,"Santa Anita Ave and Fern St S",,  34.058376,-118.042466,,,0,
02404,,"Santa Anita Ave and Fawcett Ave N",,  34.041067,-118.049654,,,0,
02405,,"Santa Anita Ave and Freer St E",,  34.100326,-118.029077,,,0,
02406,,"Santa Anita Ave and Freer St W",,  34.100180,-118.029288,,,0,
02408,,"Santa Anita Ave and Garvey Ave S",,  34.062445,-118.042528,,,0,
02409,,"Santa Anita Ave and Garvey Ave W",,  34.063174,-118.042429,,,0,
02412,,"Santa Anita Ave and Klingerman St N",,  34.056318,-118.042307,,,0,
02413,,"Santa Anita Ave and Klingerman St S",,  34.056293,-118.042489,,,0,
02414,,"Santa Anita Ave and Lexington Gallatin Rd N",,  34.035086,-118.054185,,,0,
02415,,"Santa Anita Ave and Lexington Gallatin Dr S",,  34.034844,-118.054257,,,0,
02416,,"Santa Anita Ave and Live Oak Ave W",,  34.106363,-118.030638,,,0,
02417,,"Santa Anita Ave and Lower Azusa Rd E",,  34.091907,-118.026339,,,0,
02418,,"Santa Anita Ave and Lower Azusa Rd W",,  34.091712,-118.026640,,,0,
02419,,"Santa Anita Ave and Merced Ave",,  34.041193,-118.049885,,,0,
02420,,"Santa Anita Ave and Asher St E",,  34.067841,-118.042485,,,0,
02423,,"Santa Anita Ave and Mildred St W",,  34.067344,-118.042347,,,0,
02424,,"Santa Anita Ave and Mulhall St E",,  34.088854,-118.027322,,,0,
02425,,"Santa Anita Ave and Mulhall St W",,  34.088827,-118.027573,,,0,
02426,,"Santa Anita Ave and Rush St N",,  34.052212,-118.042335,,,0,
02427,,"Santa Anita Ave and Rush St S",,  34.052160,-118.042529,,,0,
02430,,"Santa Anita Ave and Tyler Ave E",,  34.085001,-118.031037,,,0,
02431,,"Santa Anita Ave and Tyler Ave N",,  34.047827,-118.042283,,,0,
02432,,"Santa Anita Ave and Tyler Ave S",,  34.047505,-118.042342,,,0,
02433,,"Santa Anita Ave and Tyler Ave W",,  34.085300,-118.030839,,,0,
02434,,"Santa Anita Ave and Main St E",,  34.075145,-118.041313,,,0,
02435,,"Santa Anita Ave and Valley Blvd W",,  34.076897,-118.040970,,,0,
02437,,"Santa Anita Ave and West Hondo Pkwy E",,  34.096825,-118.028408,,,0,
02438,,"Santa Anita Ave and West Hondo Pkwy W",,  34.096573,-118.028573,,,0,
02439,,"Westfield Santa Anita",,  34.132988,-118.050518,,,0,
02444,,"Santa Clara Dr and Villiage Loop Rd N",,  34.036264,-117.780512,,,0,
02445,,"Santa Clara Dr and Villiage Loop Rd S",,  34.036414,-117.781049,,,0,
02447,,"Shadow Oak Dr and Amar Rd E",,  34.026019,-117.903087,,,0,
02448,,"Shadow Oak Dr and Gemini St E",,  34.019323,-117.902827,,,0,
02449,,"Shadow Oak Dr and Nogales St E",,  34.020163,-117.890478,,,0,
02451,,"Shadow Oak Dr and Rita Ln E",,  34.018715,-117.897086,,,0,
02454,,"Shadow Oak Dr and Woodgate Dr E",,  34.023175,-117.903971,,,0,
02457,,"Sierra Madre Ave and Banna Ave S",,  34.146997,-117.859172,,,0,
02459,,"Sierra Madre Ave and Bubbling Well Dr S",,  34.147038,-117.869007,,,0,
02460,,"Sierra Madre Ave and Cullen Ave N",,  34.146857,-117.859512,,,0,
02461,,"Sierra Madre Ave and Fountain Springs Ln N",,  34.146915,-117.839355,,,0,
02463,,"Sierra Madre Ave and Glendora Ave S",,  34.147015,-117.865164,,,0,
02464,,"Sierra Madre Ave and Live Oak Ave. N",,  34.146890,-117.854720,,,0,
02466,,"Sierra Madre Ave and Loraine Ave N",,  34.146869,-117.846507,,,0,
02467,,"Sierra Madre Ave and Loraine Ave S",,  34.147031,-117.846629,,,0,
02468,,"Sierra Madre Ave and Northridge Ave N",,  34.146883,-117.848642,,,0,
02469,,"Sierra Madre Ave and Northridge Ave S",,  34.147034,-117.848952,,,0,
02470,,"Sierra Madre Ave and Treanor Ave N",,  34.146865,-117.843714,,,0,
02471,,"Foothill Blvd and Sierra Madre Villa Ave E",,  34.149971,-118.082167,,,0,
02474,,"Spring St and 1st St E",,  34.053568,-118.243810,,,0,
02475,,"Spring St and 1st St W",,  34.054063,-118.243468,,,0,
02479,,"Glendora Ave and Main St. N",,  34.020715,-117.953818,,,0,
02482,,"Sunflower Ave and Arrow Hwy N",,  34.107123,-117.846319,,,0,
02483,,"Sunflower Ave and Arrow Hwy S",,  34.107429,-117.846460,,,0,
02484,,"Sunflower Ave and Juanita Ave N",,  34.110577,-117.846296,,,0,
02485,,"Sunflower Ave and Juanita Ave S",,  34.110492,-117.846451,,,0,
02494,,"Sunset Ave and Amar Rd N",,  34.045584,-117.962727,,,0,
02495,,"Sunset Ave and Amar Rd S",,  34.045633,-117.962975,,,0,
02498,,"Sunset Ave and Cameron Ave N",,  34.066615,-117.940717,,,0,
02501,,"Sunset Ave and  Robert O Young",,  34.070259,-117.937198,,,0,
02503,,"Sunset Ave and Delvale St N",,  34.051473,-117.956465,,,0,
02504,,"Sunset Ave and Delvale St S",,  34.051377,-117.956878,,,0,
02505,,"Sunset Ave and Durness St N",,  34.058999,-117.948498,,,0,
02506,,"Sunset Ave and Durness St S",,  34.059095,-117.948709,,,0,
02507,,"Sunset Ave and Fairgrove Ave N",,  34.048927,-117.959157,,,0,
02508,,"Sunset Ave and Fairgrove Ave S",,  34.049045,-117.959378,,,0,
02509,,"Sunset Ave and Farlington St N",,  34.056236,-117.951418,,,0,
02510,,"Sunset Ave and Farlington St S",,  34.056192,-117.951801,,,0,
02511,,"Sunset Ave and Francisquito Ave N",,  34.053635,-117.954163,,,0,
02512,,"Sunset Ave and Francisquito Ave S",,  34.053701,-117.954440,,,0,
02513,,"Sunset Ave and Homeward St N",,  34.043320,-117.965187,,,0,
02514,,"Sunset Ave and Homeward St S",,  34.043389,-117.965263,,,0,
02515,,"Sunset Ave and Merced Ave N",,  34.061724,-117.945990,,,0,
02518,,"Sunset Ave and Nelson Ave N",,  34.037156,-117.971659,,,0,
02519,,"Sunset Ave and Nelson Ave S",,  34.037059,-117.972035,,,0,
02522,,"Sunset Ave and Puente Ave N",,  34.082552,-117.934461,,,0,
02523,,"Sunset Ave and Puente Ave S",,  34.082486,-117.934702,,,0,
02524,,"Sunset Ave and Rowland Ave. N",,  34.079313,-117.934830,,,0,
02525,,"Sunset Ave and Rowland Ave S",,  34.078826,-117.935101,,,0,
02526,,"Sunset Ave and Plaza Dr N",,  34.070706,-117.936753,,,0,
02527,,"Sunset Ave and Temple Ave N",,  34.040856,-117.967737,,,0,
02528,,"Sunset Ave and Temple Ave S",,  34.040782,-117.968011,,,0,
02529,,"Sunset Ave and Hospital N",,  34.063410,-117.944134,,,0,
02534,,"Sunset Ave and Workman Ave N",,  34.075710,-117.935229,,,0,
02535,,"Sunset Ave and Workman Ave S",,  34.075175,-117.935497,,,0,
02536,,"Temple Ave and Bonita Ave",,  34.046939,-117.839768,,,0,
02537,,"Temple Ave and Bonita Ave",,  34.046751,-117.840692,,,0,
02539,,"Diamond Bar Blvd and Temple Ave",,  34.040305,-117.798583,,,0,
02541,,"Temple Ave and Foley Way E",,  34.045407,-117.802938,,,0,
02542,,"Temple Ave and Glendora Ave N",,  34.028301,-117.951081,,,0,
02543,,"Temple Ave and Glendora Ave S",,  34.028103,-117.951038,,,0,
02544,,"Temple Ave and Grand Ave E",,  34.043080,-117.846876,,,0,
02545,,"Temple Ave and Hacienda Blvd S",,  34.029962,-117.953605,,,0,
02548,,"Temple Ave and Mission Blvd W",,  34.041024,-117.798420,,,0,
02551,,"Temple Ave and Mt SAC Way",,  34.044049,-117.844537,,,0,
02554,,"Temple Ave and Foley Way W",,  34.045582,-117.802743,,,0,
02555,,"Temple Ave and Rancho Navato Dr E",,  34.038057,-117.795024,,,0,
02558,,"Temple Ave and Pomona Blvd E",,  34.047388,-117.809885,,,0,
02559,,"Temple Ave and Pomona Blvd",,  34.047886,-117.810412,,,0,
02562,,"Temple Ave and S Campus Dr",,  34.049876,-117.816027,,,0,
02563,,"Temple Ave and S Campus Dr",,  34.050499,-117.817418,,,0,
02564,,"Temple Ave and University Dr",,  34.050394,-117.820307,,,0,
02565,,"Temple Ave and University Dr",,  34.050620,-117.821016,,,0,
02566,,"Temple Ave and Valley Blvd",,  34.048513,-117.812692,,,0,
02567,,"Temple Ave and Valley Blvd",,  34.048799,-117.812721,,,0,
02568,,"Towne Ave and Arrow Hwy N",,  34.089892,-117.736718,,,0,
02569,,"Towne Ave and Arrow Hwy S",,  34.089777,-117.736920,,,0,
02570,,"Towne Ave and Bangor N",,  34.083637,-117.738799,,,0,
02571,,"Towne Ave and Bangor S",,  34.083755,-117.739006,,,0,
02572,,"Towne Ave and Bonita Ave N",,  34.095882,-117.736683,,,0,
02573,,"Towne Ave and Bonita Ave S",,  34.095858,-117.736911,,,0,
02574,,"Towne Ave and Culmore St N",,  34.103230,-117.736693,,,0,
02575,,"Towne Ave and Foothill S",,  34.106729,-117.736969,,,0,
02576,,"Towne Ave and Grove St S",,  34.103637,-117.736959,,,0,
02577,,"Towne Ave and Harrison N",,  34.098658,-117.736628,,,0,
02578,,"Towne Ave and Harrison S",,  34.098581,-117.736948,,,0,
02579,,"Towne Ave and La Verne Ave N",,  34.080195,-117.740552,,,0,
02580,,"Towne Ave and La Verne S",,  34.079731,-117.740995,,,0,
02581,,"Towne Ave and Marketplace",,  34.022802,-117.740275,,,0,
02585,,"Towne Ave and Town Center N",,  34.093189,-117.736685,,,0,
02591,,"Patsaouras Transit Plaza (Union Station) E",,  34.054001,-118.232688,,,0,
02593,,"USC Medical Center E",,  34.055392,-118.210398,,,0,
02594,,"USC Medical Center W",,  34.055419,-118.210543,,,0,
02595,,"Valinda Ave and Burtree St E",,  34.040503,-117.926645,,,0,
02596,,"Valinda Ave and Cameron Ave E",,  34.061427,-117.925517,,,0,
02598,,"Valinda Ave and Cameron Ave W",,  34.061355,-117.925365,,,0,
02600,,"Valinda Ave and Francisquito Ave E",,  34.050540,-117.925669,,,0,
02601,,"Valinda Ave and Glendora Ave E",,  34.066750,-117.925588,,,0,
02605,,"Valinda Ave and Maplegrove St E",,  34.044437,-117.925773,,,0,
02606,,"Valinda Ave and Merced Ave E",,  34.054189,-117.925616,,,0,
02611,,"Valinda Ave and Vine Ave E",,  34.057778,-117.925570,,,0,
02614,,"Valley Blvd and Omar St E",,  34.056936,-117.804499,,,0,
02619,,"Valley Blvd and Humane Way E",,  34.061252,-117.792127,,,0,
02620,,"Valley Blvd and Humane Way W",,  34.061458,-117.792223,,,0,
02621,,"Valley Blvd and Johnson Ave E",,  34.071107,-118.031081,,,0,
02623,,"Valley Blvd and La Madera Ave E",,  34.065729,-118.023714,,,0,
02624,,"Valley Blvd and Omar St W",,  34.056855,-117.804931,,,0,
02625,,"Valley Blvd and Peck Rd E",,  34.068994,-118.028456,,,0,
02627,,"Valley Blvd and Vineland Ave",,  34.047416,-117.993238,,,0,
02628,,"Valley Blvd and Sunset Ave W",,  34.035090,-117.974825,,,0,
02630,,"Valley Blvd and Ridgeway St W",,  34.061352,-117.796201,,,0,
02631,,"Valley Blvd and Temple Ave E",,  34.048812,-117.811952,,,0,
02632,,"Valley Center Ave and Catherine Park Dr N",,  34.142235,-117.837368,,,0,
02633,,"Via Verde Park and Ride   E",,  34.069675,-117.837512,,,0,
02634,,"Via Verde Park and Ride   W",,  34.069988,-117.837310,,,0,
02636,,"Village Loop Rd and Old Wood Rd N",,  34.033834,-117.777211,,,0,
02637,,"Village Loop and Old Wood Road S",,  34.033867,-117.777062,,,0,
02638,,"Village Loop Rd and Old Wood Rd",,  34.033834,-117.777016,,,0,
02640,,"Village Loop Rd and Phillips Ranch Rd N",,  34.028690,-117.772449,,,0,
02642,,"Vincent Ave and Glendora Ave N",,  34.066064,-117.927273,,,0,
02643,,"Vincent Ave and Glendora Ave S",,  34.066135,-117.927487,,,0,
02646,,"Vincent Ave and Lakes Dr N",,  34.069306,-117.926699,,,0,
02647,,"Vincent Ave and Plaza Dr S",,  34.069306,-117.927078,,,0,
02651,,"Vincent Ave and Workman Ave N",,  34.075422,-117.926198,,,0,
02652,,"Vincent Ave and Workman Ave S",,  34.075653,-117.926396,,,0,
02654,,"West Covina Pkwy and Fashion Plaza Way S",,  34.068735,-117.933069,,,0,
02656,,"West Covina Pkwy and California Ave E",,  34.068577,-117.930513,,,0,
02657,,"West Covina Prkwy and California Ave N",,  34.068662,-117.929654,,,0,
02660,,"West Covina Pkwy and Fashion Plaza Way E",,  34.068604,-117.933432,,,0,
02661,,"West Covina Prkwy and Fashion Plaza Way S",,  34.068639,-117.933650,,,0,
02662,,"West Covina Pkwy and Service Ave E",,  34.068474,-117.937546,,,0,
02665,,"West Covina Pkwy and Toluca Ave E",,  34.070701,-117.940853,,,0,
02668,,"White Ave and Arrow Hwy W",,  34.093621,-117.764897,,,0,
02669,,"White Ave and Gate 6 W",,  34.081713,-117.761337,,,0,
02670,,"White Ave and Berkeley Ave E",,  34.078745,-117.759843,,,0,
02672,,"White Ave and Gate 5 N",,  34.082265,-117.761266,,,0,
02675,,"Holt Ave and White Ave N",,  34.062279,-117.758758,,,0,
02676,,"White Ave and McKinley Ave W",,  34.078138,-117.759977,,,0,
02680,,"White Ave and Orange Grove Ave E",,  34.069116,-117.759405,,,0,
02682,,"White Ave and Texas St E",,  34.064859,-117.759239,,,0,
02683,,"White Ave and Texas St W",,  34.064892,-117.759061,,,0,
02684,,"Whittier Blvd and Beach Blvd N",,  33.939952,-117.968652,,,0,
02685,,"Whittier Blvd and Cole Dr S",,  33.948185,-118.004982,,,0,
02686,,"Whittier Blvd and 1st Ave N",,  33.941532,-117.985536,,,0,
02687,,"Whittier Blvd and 1st Ave S",,  33.940988,-117.984845,,,0,
02688,,"Whittier Blvd and Jordan Rd S",,  33.939863,-117.980584,,,0,
02689,,"Whittier Blvd and Koopmans Way N",,  33.939981,-117.972272,,,0,
02690,,"Whittier Blvd and Pounds Ave N",,  33.940089,-117.979702,,,0,
02691,,"Whittier Blvd and Rigsby St S",,  33.939800,-117.973423,,,0,
02692,,"Whittier Blvd and Santa Gertrudes Ave N",,  33.945002,-117.994701,,,0,
02693,,"Whittier Blvd and Santa Gertrudes Ave S",,  33.944687,-117.994598,,,0,
02694,,"Whittier Blvd and Whittwood Dr N",,  33.946609,-117.999004,,,0,
02695,,"Whittier Blvd and Scott Ave S",,  33.946731,-118.000257,,,0,
02696,,"Whittier Blvd and Valley Home Ave N",,  33.940054,-117.976891,,,0,
02697,,"Whittier Blvd and Valley Home Ave S",,  33.939807,-117.976805,,,0,
02744,,"Eastland Center",,  34.075246,-117.886304,,,0,
02746,,"Workman Mill Rd. and Opp. FedEx N",,  34.023327,-118.035225,,,0,
02747,,"Workman Mill Rd and Bark Dr S",,  34.036647,-118.008947,,,0,
02748,,"Workman Mill Rd and Clorita St N",,  34.013848,-118.045971,,,0,
02749,,"Workman Mill Rd and Coleford Ave S",,  34.034883,-118.013960,,,0,
02750,,"Workman Mill Rd and Crossroads Pkwy N",,  34.032464,-118.020073,,,0,
02751,,"Workman Mill Rd and Crossroads Pkwy S",,  34.028934,-118.026250,,,0,
02752,,"Workman Mill Rd and Don Julian Rd S",,  34.040951,-117.998461,,,0,
02754,,"Workman Mill Rd and Lomitas Ave S",,  34.038956,-118.002359,,,0,
02755,,"Workman Mill Rd and Mission Mill Rd N",,  34.015113,-118.044124,,,0,
02756,,"Workman Mill Ave and Oakman Dr S",,  34.037869,-118.005677,,,0,
02757,,"Workman Mill Rd and Pioneer Blvd N",,  34.008453,-118.055102,,,0,
02758,,"Workman Mill and Rio Hondo College N",,  34.020163,-118.037553,,,0,
02760,,"Workman Mill Rd. and Rose Hills Rd S",,  34.013307,-118.046809,,,0,
02761,,"Workman Mill Rd and Coleford Ave N",,  34.034789,-118.013436,,,0,
02762,,"Workman Mill Rd and Don Julian Rd N",,  34.040399,-117.998692,,,0,
02763,,"Workman Mill Rd and Fontenoy Ave N",,  34.036004,-118.009907,,,0,
02764,,"Workman Mill Rd and Lomitas Ave N",,  34.038560,-118.002755,,,0,
02765,,"Workman Mill Rd. and Mission Mill Rd. S",,  34.015206,-118.044517,,,0,
02766,,"Workman Mill Rd and Oakman Dr N",,  34.037813,-118.004900,,,0,
02767,,"Workman Mill Rd. and Rio Hondo College S",,  34.019336,-118.038635,,,0,
02768,,"Workman Mill Rd and Shallowbrook Rd S",,  34.016774,-118.041620,,,0,
02769,,"Puente Ave and Valley Blvd S",,  34.043709,-117.990186,,,0,
02770,,"Puente Ave and 3rd Ave N",,  34.043480,-117.990165,,,0,
02772,,"Philadelphia St and San Antonio Ave E",,  34.033570,-117.735842,,,0,
02773,,"Philadelphia St and Towne Ave E",,  34.033457,-117.740926,,,0,
02774,,"Reservoir St and Ninth St E",,  34.051305,-117.732363,,,0,
02775,,"Reservoir St and Franklin Ave E",,  34.041450,-117.732005,,,0,
02776,,"Reservoir St and Grand Ave E",,  34.048117,-117.732251,,,0,
02777,,"Reservoir St and Lexington Ave E",,  34.037152,-117.731791,,,0,
02778,,"Reservoir St and Philadelphia St E",,  34.034162,-117.731678,,,0,
02779,,"Reservoir St and Phillips Blvd E",,  34.044976,-117.732132,,,0,
02780,,"Rio Rancho Rd and Auto Center Dr E",,  34.032979,-117.756638,,,0,
02781,,"Rio Rancho Rd and Park Ave E",,  34.033446,-117.753841,,,0,
02783,,"East End Ave and Mission Blvd E",,  34.056553,-117.723766,,,0,
02784,,"Indian Hill Blvd and Elmcroft Ave E",,  34.072579,-117.719156,,,0,
02786,,"Foothill Blvd and Moreno Ave E",,  34.118470,-117.780841,,,0,
02789,,"Gale Ave and Hinnen Ave S",,  34.007956,-117.952980,,,0,
02791,,"Foothill Blvd and Alosta Ave W",,  34.133530,-117.897659,,,0,
02792,,"Huntington Dr and Cotter Ave",,  34.139783,-117.973033,,,0,
02793,,"Rosemead Blvd and Colorado Blvd W",,  34.146634,-118.073225,,,0,
02794,,"San Gabriel Blvd and Foothill Blvd  W",,  34.149609,-118.094407,,,0,
02795,,"Foothill Blvd and Sunnyslope Ave E",,  34.149867,-118.090176,,,0,
02796,,"Rosemead Blvd and Foothill Blvd E",,  34.149788,-118.073568,,,0,
02801,,"Foothill Blvd and San Gabriel Blvd E",,  34.149785,-118.093835,,,0,
02802,,"Diamond Bar City Hall (Copley Dr and City Hall)",,  33.998404,-117.834057,,,0,
02803,,"Gateway Center Dr and Valley Vista Dr",,  33.998561,-117.835694,,,0,
02807,,"Mountain Ave and Base Line Rd S",,  34.121198,-117.728891,,,0,
02808,,"Indian Hill and San Bernardino Ave",,  34.076064,-117.719349,,,0,
02811,,"Glendora Ave and Hill St N",,  34.026311,-117.951020,,,0,
02812,,"Hacienda Blvd and Glendora Ave N",,  34.033214,-117.950633,,,0,
02813,,"Glendora Ave and Francisquito Ave N",,  34.050764,-117.943531,,,0,
02814,,"Glendora Ave and Francisquito Ave S",,  34.050871,-117.943716,,,0,
02815,,"Amar Rd and Sunset Bluff Rd. W",,  34.041726,-117.851922,,,0,
02818,,"Patsaouras Transit Plaza (Union Station) W",,  34.054008,-118.232771,,,0,
02819,,"Fairplex Dr and Arroyo Ave E",,  34.064893,-117.787519,,,0,
02826,,"Valley Blvd and Ridgeway St W",,  34.061174,-117.795049,,,0,
02827,,"Nogales St and Colima Rd W",,  33.988548,-117.889134,,,0,
02831,,"Baldwin Park Metrolink",,  34.086113,-117.957398,,,0,
02832,,"Colima Rd and Nogales St W",,  33.987595,-117.889706,,,0,
02836,,"Live Oak Ave and Stewart Ave S",,  34.106607,-117.968874,,,0,
02837,,"Baldwin Park Blvd and Stewart Ave S",,  34.081230,-117.967539,,,0,
02838,,"Merced Ave and Baldwin Park Blvd S",,  34.078576,-117.969654,,,0,
02839,,"Merced Ave and Vineland Ave S",,  34.075346,-117.965280,,,0,
02842,,"Live Oak Ave and Stewart Ave N",,  34.106808,-117.969075,,,0,
02845,,"Covina Blvd and 1635 Covina Blvd. S",,  34.099460,-117.840585,,,0,
02847,,"Citrus Ave and S Garvey Ave",,  34.070339,-117.890055,,,0,
02851,,"Gale Ave and Latchford Ave S",,  34.018016,-117.983410,,,0,
02852,,"Rio Rancho Rd and Lone Ridge Rd W",,  34.029321,-117.760556,,,0,
02853,,"Rio Rancho Rd and Meadow View Dr W",,  34.026775,-117.764075,,,0,
02854,,"Rio Rancho Rd and Phillips Ranch Rd W",,  34.027364,-117.771627,,,0,
02855,,"Rio Rancho Rd and Phillips Ranch Rd E",,  34.026755,-117.770900,,,0,
02856,,"Rio Rancho Rd and Town and Country Rd E",,  34.026412,-117.765412,,,0,
02857,,"Rio Rancho Rd and Lone Ridge Rd E",,  34.029715,-117.759994,,,0,
02858,,"White Ave and Durward Way N",,  34.111699,-117.761929,,,0,
02859,,"Montebello Blvd and Plaza Dr N",,  34.034478,-118.084465,,,0,
02860,,"Foothill Blvd and Lone Hill Ave S",,  34.136257,-117.828891,,,0,
02861,,"Covina Blvd & Lyman Ave N",,  34.099365,-117.849481,,,0,
02862,,"Covina Blvd and 1630 Covina Blvd N",,  34.099370,-117.840668,,,0,
02867,,"Workman Mill Rd and Sierra Morena Ave N",,  34.001830,-118.056173,,,0,
02868,,"Workman Mill and Rose Hills Gate 1 N",,  34.017161,-118.040914,,,0,
02872,,"Ramona Blvd and Francisquito Ave W",,  34.079698,-117.989616,,,0,
02873,,"Bonita Ave and Garey Ave E",,  34.096176,-117.748153,,,0,
02875,,"Colima Rd and Lake Canyon Dr W",,  33.989833,-117.864044,,,0,
02876,,"Valley Blvd and Orange Ave",,  34.038270,-117.979458,,,0,
02877,,"Valley Blvd and Orange Ave",,  34.038080,-117.979594,,,0,
02878,,"Colima Rd and Lake Canyon Dr E",,  33.989698,-117.863830,,,0,
02879,,"Holt Ave and Union Ave E",,  34.061469,-117.782889,,,0,
02880,,"Holt Ave and Dudley Ave E",,  34.061651,-117.776873,,,0,
02882,,"Holt Ave and Lewis E",,  34.061765,-117.769275,,,0,
02886,,"Mission Blvd and Curran Pl W",,  34.054339,-117.775440,,,0,
02888,,"Valley Blvd and Dupont St W",,  34.059822,-117.801233,,,0,
02889,,"Valley Blvd and Dupont St E",,  34.059777,-117.801006,,,0,
02891,,"Mission Blvd and Curran Pl E",,  34.054110,-117.775401,,,0,
02893,,"Colima Rd and Albatross Rd E",,  33.990436,-117.924607,,,0,
02894,,"Colima Rd and Walnut Hall Rd W",,  33.990060,-117.917356,,,0,
02896,,"Colima Rd and Larkvane Rd W",,  33.988595,-117.909926,,,0,
02897,,"Colima Rd and Fullerton Rd E",,  33.988345,-117.905766,,,0,
02898,,"Colima Rd and Batson Ave W",,  33.988176,-117.904028,,,0,
02899,,"Colima Rd and Jellick Ave E",,  33.988050,-117.901425,,,0,
02900,,"Colima Rd and Desire Ave W",,  33.987832,-117.896738,,,0,
02901,,"Colima Rd and Paso Real Ave W",,  33.987606,-117.893126,,,0,
02902,,"Nogales St and Walnut Dr W",,  33.996475,-117.888265,,,0,
02903,,"Nogales St and San Jose Ave W",,  33.999733,-117.887938,,,0,
02904,,"Nogales St and Valley Blvd W",,  34.004651,-117.887399,,,0,
02906,,"Nogales St and La Puente Rd W",,  34.010575,-117.886755,,,0,
02907,,"Nogales St and Amanda St W",,  34.013864,-117.886473,,,0,
02908,,"Nogales St and Shakespeare Dr W",,  34.017856,-117.888306,,,0,
02909,,"Shadow Oak Dr and Nogales St W",,  34.020199,-117.890781,,,0,
02910,,"Shadow Oak Dr and Rita Ln W",,  34.018869,-117.897063,,,0,
02912,,"Shadow Oak Dr and Gemini St W",,  34.019533,-117.902811,,,0,
02914,,"Shadow Oak Dr and Woodgate Dr W",,  34.023529,-117.903532,,,0,
02917,,"Valinda Ave and Maplegrove St W",,  34.044000,-117.925622,,,0,
02919,,"Valinda Ave and Francisquito Ave W",,  34.050210,-117.925540,,,0,
02920,,"Valinda Ave and Merced Ave W",,  34.053821,-117.925448,,,0,
02921,,"Valinda Ave and Vine Ave W",,  34.057451,-117.925398,,,0,
02923,,"Valinda Ave and Glendora Ave W",,  34.066648,-117.925373,,,0,
02924,,"West Covina Pkwy and California Ave W",,  34.068711,-117.929661,,,0,
02925,,"West Covina Pkwy and Toluca Ave W",,  34.070140,-117.939784,,,0,
02926,,"Pacific Ave and Garvey Ave W",,  34.073360,-117.944325,,,0,
02928,,"Pacific Ave and Puente Ave W",,  34.079599,-117.952683,,,0,
02929,,"Pacific Ave and Vineland Ave W",,  34.083021,-117.957340,,,0,
02930,,"Ramona Blvd and Maine Ave",,  34.086493,-117.961067,,,0,
02932,,"Baldwin Park Blvd and Ramona Blvd N",,  34.086200,-117.964714,,,0,
02934,,"Baldwin Park Blvd and Los Angeles St N",,  34.092542,-117.964923,,,0,
02942,,"Los Angeles St and Merced Ave W",,  34.092237,-117.973510,,,0,
02943,,"Los Angeles St and Center St W",,  34.092164,-117.977820,,,0,
02944,,"Los Angeles St and Hornbrook Ave W",,  34.092109,-117.982206,,,0,
02947,,"Lower Azusa Rd and Roseglen St W",,  34.088033,-118.002119,,,0,
02948,,"Cogswell Rd and Lower Azusa Rd W",,  34.087563,-118.006783,,,0,
02949,,"Cogswell Rd and Killian St W",,  34.083007,-118.009018,,,0,
02950,,"Cogswell Rd and Lambert Ave W",,  34.079327,-118.010848,,,0,
02951,,"Cogswell Rd and Ramona Blvd W",,  34.075438,-118.012773,,,0,
02952,,"Cogswell Rd and Deana St W",,  34.072603,-118.014193,,,0,
02953,,"Cogswell Rd and Ferris Rd W",,  34.070391,-118.015251,,,0,
02954,,"Cogswell Rd and Exline St W",,  34.066566,-118.017253,,,0,
02955,,"Valley Blvd and Moutain View Rd W",,  34.064131,-118.021112,,,0,
02956,,"Valley Blvd and La Madera Ave W",,  34.065657,-118.023399,,,0,
02958,,"Valley Blvd and Johnson Ave W",,  34.071168,-118.030889,,,0,
02959,,"Ramona Blvd and Tyler Ave W",,  34.072101,-118.036381,,,0,
02960,,"Ramona Blvd and Lexington Ave W",,  34.072072,-118.040043,,,0,
02962,,"Ramona Blvd and Main St W",,  34.072411,-118.033652,,,0,
02963,,"Valinda Ave and Summer Pl W",,  34.040099,-117.926543,,,0,
02966,,"Merced Ave and Meeker Ave S",,  34.067495,-117.954614,,,0,
02967,,"Merced Ave and Orange Ave S",,  34.064603,-117.950684,,,0,
02968,,"Merced Ave and Puente Ave S",,  34.071916,-117.960698,,,0,
02969,,"Merced Ave and S Garvey Ave S",,  34.069601,-117.957496,,,0,
02971,,"Sunset Ave and Cameron Ave S",,  34.066689,-117.940311,,,0,
02972,,"Sunset Ave and Merced Ave S",,  34.061589,-117.945730,,,0,
02973,,"Sunset Ave and Vine Ave S",,  34.063976,-117.943186,,,0,
02974,,"Amar Rd and Country Hollow Dr W",,  34.038083,-117.860045,,,0,
02975,,"Amar Rd and California Ave W",,  34.041839,-117.958180,,,0,
02976,,"Colima Rd and Carretera Dr S",,  33.953860,-118.003320,,,0,
02977,,"Colima Rd and Countrywood Ave E",,  33.991394,-117.941682,,,0,
02979,,"Colima Rd and Countrywood Ave S",,  33.991194,-117.941469,,,0,
02981,,"Colima Rd and Dawn Haven Rd S",,  33.990158,-117.945020,,,0,
02983,,"Colima Rd and Country Canyon Rd W",,  33.988013,-117.949041,,,0,
02984,,"Garey Ave and County N",,  34.026417,-117.748924,,,0,
02985,,"Rio Rancho Rd and Rancho Valley Dr W",,  34.032968,-117.756971,,,0,
03005,,"Colorado Blvd and Madison Ave W",,  34.146002,-118.138638,,,0,
03007,,"Philadelphia St and Garey Ave E",,  34.033248,-117.748785,,,0,
03015,,"Spring St and Temple St W",,  34.055098,-118.242540,,,0,
03022,,"Gale Ave and Hacienda Blvd W",,  34.011002,-117.963267,,,0,
03025,,"Hacienda Blvd and Gale Ave S",,  34.010631,-117.963152,,,0,
03026,,"Barranca Ave and Foothill Blvd W",,  34.135724,-117.881361,,,0,
03035,,"Gale Ave and Hacienda Blvd N",,  34.010584,-117.962221,,,0,
03038,,"Base Line Rd and Indian Hill Blvd N",,  34.121557,-117.720012,,,0,
03040,,"Fairplex Park and Ride W",,  34.073275,-117.785229,,,0,
03042,,"Orange Grove Ave and Fairplex Dr S",,  34.062839,-117.786735,,,0,
03043,,"Orange Grove Ave and Fairplex Dr N",,  34.062922,-117.786868,,,0,
03044,,"Orange Grove Ave and Glen Ave S",,  34.063991,-117.781179,,,0,
03045,,"Orange Grove Ave and Dudley St",,  34.064806,-117.777241,,,0,
03046,,"Orange Grove Ave and Dudley St N",,  34.064981,-117.776818,,,0,
03047,,"Foothill Blvd and Wheeler Ave E",,  34.117180,-117.776999,,,0,
03049,,"Fairplex Park n Ride E",,  34.074249,-117.784305,,,0,
03051,,"Grand Ave and 5th St",,  34.050010,-118.254139,,,0,
03058,,"Reservoir St and Mission Blvd",,  34.055336,-117.732499,,,0,
03059,,"Diamond Bar Blvd and Gold Rush Dr S",,  34.014274,-117.806915,,,0,
03060,,"Brea Mall Transit Center",,  33.916054,-117.883255,,,0,
03061,,"Diamond Bar Blvd and Tin Dr S",,  34.009341,-117.808124,,,0,
03062,,"State College Blvd and Birch St N",,  33.918358,-117.882884,,,0,
03065,,"State College Blvd and Lambert Rd N",,  33.924730,-117.882516,,,0,
03066,,"Diamond Bar Blvd and Clear Creek Cyn S",,  34.003367,-117.809919,,,0,
03067,,"Diamond Bar Blvd and Grand Ave S",,  34.000825,-117.811387,,,0,
03068,,"Diamond Bar Blvd and Brea Canyon Rd N",,  33.967841,-117.847448,,,0,
03069,,"Diamond Bar Blvd and Quail Summit Dr S",,  33.996627,-117.813765,,,0,
03070,,"Diamond Bar Blvd and Cold Springs Ln N",,  33.971933,-117.839380,,,0,
03071,,"Diamond Bar Blvd and Mountain Laurel Way S",,  33.992187,-117.817288,,,0,
03073,,"Diamond Bar Blvd and Fountain Springs Rd N",,  33.975874,-117.835840,,,0,
03074,,"Diamond Bar Blvd and Kiowa Crest Dr S",,  33.987020,-117.824464,,,0,
03075,,"Diamond Bar Blvd and Silver Hawk Dr S",,  33.985252,-117.827021,,,0,
03076,,"Diamond Bar Blvd and Pathfinder Dr S",,  33.981383,-117.830931,,,0,
03077,,"Diamond Bar Blvd and Shadow Canyon Dr S",,  33.977535,-117.834356,,,0,
03078,,"Diamond Bar Blvd and Fountain Springs Rd S",,  33.975853,-117.836117,,,0,
03079,,"Diamond Bar Blvd and Cold Springs Ln S",,  33.972241,-117.839360,,,0,
03080,,"Diamond Bar Blvd and Shadow Canyon Dr N",,  33.977406,-117.834231,,,0,
03081,,"Diamond Bar Blvd and Pathfinder Rd N",,  33.981254,-117.830603,,,0,
03082,,"Diamond Bar Blvd and Brea Canyon Rd S",,  33.968012,-117.847359,,,0,
03083,,"Diamond Bar Blvd and Silver Hawk Dr N",,  33.984892,-117.827127,,,0,
03084,,"State College Blvd and Lambert Rd S",,  33.924731,-117.882985,,,0,
03085,,"Diamond Bar Blvd and Kiowa Crest Dr N",,  33.986707,-117.824547,,,0,
03086,,"State College Blvd and Birch St S",,  33.918329,-117.883091,,,0,
03087,,"Diamond Bar Blvd and Quail Summit Dr N",,  33.996632,-117.813498,,,0,
03088,,"Diamond Bar Blvd and Grand Ave N",,  34.001179,-117.810934,,,0,
03089,,"Diamond Bar Blvd and Clear Creek Cyn N",,  34.003655,-117.809529,,,0,
03090,,"Diamond Bar Blvd and Crestview Dr N",,  34.009352,-117.807910,,,0,
03091,,"Diamond Bar Blvd and Gold Rush Dr N",,  34.014345,-117.806674,,,0,
03093,,"Towne Ave and Indigo Ct",,  34.093154,-117.736840,,,0,
03095,,"Bonita Ave and San Dimas Canyon Rd W",,  34.106727,-117.793844,,,0,
03098,,"Badillo St and Banna Ave",,  34.086388,-117.859643,,,0,
03099,,"Badillo St and Banna Ave",,  34.086575,-117.859597,,,0,
03100,,"Badillo St and Reeder Ave",,  34.088863,-117.853829,,,0,
03103,,"Sunflower Ave. Cypress St.",,  34.095973,-117.846448,,,0,
03104,,"Rivergrade Rd & Arrow Hwy S",,  34.109877,-117.966943,,,0,
03108,,"Highland Ave and Central Ave",,  34.136132,-117.966563,,,0,
03110,,"Duarte Rd and Hope Dr W",,  34.132413,-117.971065,,,0,
03111,,"Glendora Ave and Covina Blvd N",,  34.099321,-117.863761,,,0,
03112,,"Lone Hill Ave and Cienega Ave N",,  34.102810,-117.828849,,,0,
03113,,"Lone Hill Ave and Cienega Ave S",,  34.102948,-117.829034,,,0,
03114,,"Lone Hill Ave and Arrow Hwy N",,  34.107012,-117.828837,,,0,
03115,,"Lone Hill ave and Arrow Hwy S",,  34.106465,-117.829033,,,0,
03119,,"Lone Hill AVe and Gladstone St S",,  34.114165,-117.829037,,,0,
03124,,"Colima Rd and Fairway Dr",,  33.986751,-117.870106,,,0,
03125,,"Live Oak Ave and Baldwin Park Blvd",,  34.106749,-117.964682,,,0,
03126,,"Live Oak Ave and Arrow Hwy",,  34.106941,-117.963605,,,0,
03128,,"Foothill Blvd and Santa Paula Ave W",,  34.150066,-118.085477,,,0,
03129,,"Foothill Blvd and Santa Paula Ave E",,  34.149981,-118.085044,,,0,
03130,,"Halliburton Rd and Hacienda Blvd",,  33.997264,-117.967440,,,0,
03131,,"Base Line Rd and Mills Ave",,  34.121587,-117.707437,,,0,
03132,,"Claremont Blvd. and 6th St",,  34.098902,-117.703216,,,0,
03133,,"Ramona Blvd and Valley Blvd E",,  34.072679,-118.032168,,,0,
03134,,"Colima Rd and Country Canyon Rd E",,  33.987923,-117.948758,,,0,
03135,,"Azusa Ave and The Heights N",,  34.035005,-117.912911,,,0,
03136,,"Azusa Ave and The Heights S",,  34.035187,-117.913163,,,0,
03140,,"S Campus Dr and Kellogg Dr E",,  34.054003,-117.813411,,,0,
03141,,"S Campus Dr & Kellogg Dr W",,  34.053985,-117.813617,,,0,
03142,,"Industry Park and Ride",,  34.011259,-117.843744,,,0,
03153,,"Hope St and 1st St W",,  34.056167,-118.250200,,,0,
03162,,"Flower St and 4th St S",,  34.053217,-118.254598,,,0,
03169,,"1st St and Hill St W",,  34.054580,-118.246881,,,0,
03192,,"Workman Ave and Palmetto Ave",,  34.075430,-117.888530,,,0,
03194,,"Cameron Ave and Grand Ave",,  34.056896,-117.867432,,,0,
03195,,"Cameron Ave and Whitebirch Dr E",,  34.059943,-117.874872,,,0,
03197,,"San Bernardino Rd and Lark Ellen Ave",,  34.088318,-117.916305,,,0,
03198,,"San Bernardino Rd and Rimsdale Ave",,  34.088669,-117.910931,,,0,
03199,,"Grand Ave and San Jose Hills Rd",,  34.045438,-117.849205,,,0,
03200,,"Grand Ave and Shadow Mountain Rd",,  34.050288,-117.855819,,,0,
03201,,"Azusa Ave and San Bernardino Rd",,  34.088743,-117.907925,,,0,
03202,,"Ramona Blvd and Francisquito Ave E",,  34.079622,-117.988764,,,0,
03204,,"Ramona Blvd and Barnes Ave",,  34.078646,-117.993395,,,0,
03208,,"Ramona Blvd and Earl Ave",,  34.080430,-117.985297,,,0,
03209,,"Ramona Blvd and Foster Ave",,  34.081517,-117.980729,,,0,
03210,,"Ramona Blvd and Gilman Rd",,  34.076543,-118.002637,,,0,
03212,,"Ramona Blvd and La Rica Ave",,  34.084979,-117.966157,,,0,
03214,,"Ramona Blvd and Maine Ave",,  34.086509,-117.960226,,,0,
03215,,"Ramona Blvd and Maxson Rd",,  34.075858,-118.007798,,,0,
03216,,"Ramona Blvd and Merced Ave",,  34.083403,-117.972420,,,0,
03217,,"Ramona Blvd and Monterey Ave",,  34.082355,-117.977017,,,0,
03218,,"Ramona Blvd and Park Pl",,  34.088280,-117.953054,,,0,
03220,,"Ramona Blvd and Puente Ave",,  34.089135,-117.949460,,,0,
03223,,"Ramona Blvd and Stewart Ave",,  34.084361,-117.968149,,,0,
03224,,"Ramona Blvd and Lee Ln",,  34.073570,-118.026845,,,0,
03228,,"Barranca St and Cameron Ave E",,  34.061240,-117.881509,,,0,
03229,,"Barranca St and Cortez St",,  34.063720,-117.881443,,,0,
03230,,"Barranca St and Virginia Ave",,  34.069276,-117.881379,,,0,
03231,,"Citrus Ave and Puente St",,  34.082406,-117.890267,,,0,
03232,,"Citrus Ave and Rowland St",,  34.078784,-117.890242,,,0,
03233,,"Workman Ave and Citrus Ave",,  34.075326,-117.889763,,,0,
03244,,"Badillo St and Armel Dr",,  34.086291,-117.902717,,,0,
03245,,"Badillo St and Hollenbeck Ave",,  34.086195,-117.899147,,,0,
03246,,"Badillo St and Fourth Ave",,  34.086155,-117.894193,,,0,
03247,,"Badillo St and Citrus Ave",,  34.086201,-117.890353,,,0,
03248,,"San Bernardino Rd and Foxdale Ave",,  34.089848,-117.937415,,,0,
03249,,"San Bernardino Rd and Azusa Canyon Rd",,  34.090015,-117.943211,,,0,
03250,,"San Bernardino Rd and Irwindale Ave",,  34.089728,-117.933924,,,0,
03251,,"San Bernardino Rd and Vincent Ave",,  34.089385,-117.925185,,,0,
03252,,"San Bernardino Rd and Woodgrove Ave",,  34.089627,-117.930121,,,0,
03253,,"Badillo St and Virginia Ave",,  34.087629,-117.953859,,,0,
03254,,"Cameron Ave and Grand Ave",,  34.057073,-117.867676,,,0,
03256,,"Cameron Ave and Whitebirch Dr W",,  34.060196,-117.874796,,,0,
03257,,"San Bernardino Rd and Lark Ellen Ave",,  34.088533,-117.916919,,,0,
03258,,"Grand Ave and College Vista Ave",,  34.050478,-117.856053,,,0,
03259,,"Grand Ave and San Jose Hills Rd",,  34.046288,-117.849246,,,0,
03261,,"Badillo St and Azusa Ave",,  34.086256,-117.907505,,,0,
03262,,"Puente Ave and Ramona Blvd",,  34.088883,-117.949497,,,0,
03263,,"Ramona Blvd and Francisquito Ave W",,  34.079705,-117.989547,,,0,
03264,,"Ramona Blvd and Durbin St",,  34.078804,-117.993523,,,0,
03266,,"Ramona Blvd and Baldwin Park Blvd",,  34.085586,-117.965114,,,0,
03267,,"Ramona Blvd and Bogart Ave",,  34.087205,-117.958042,,,0,
03270,,"Ramona Blvd and Earl Ave",,  34.080647,-117.985488,,,0,
03271,,"Ramona Blvd and Gilman Rd",,  34.076707,-118.002614,,,0,
03272,,"Ramona Blvd and Harlan Ave",,  34.081644,-117.981320,,,0,
03276,,"Ramona Blvd and Maxson Rd",,  34.076045,-118.007485,,,0,
03277,,"Ramona Blvd and Merced Ave",,  34.083527,-117.973027,,,0,
03278,,"Ramona Blvd and Monterey Ave",,  34.082605,-117.977066,,,0,
03281,,"Ramona Blvd and Stewart Ave",,  34.084452,-117.968955,,,0,
03282,,"Ramona Blvd and Orchard St",,  34.073714,-118.027014,,,0,
03285,,"Barranca St and Cameron Ave",,  34.061030,-117.881256,,,0,
03286,,"Barranca St and Cortez St",,  34.064157,-117.881198,,,0,
03287,,"Barranca St and Virginia Ave",,  34.069738,-117.881141,,,0,
03289,,"Citrus Ave and Puente St",,  34.082897,-117.889966,,,0,
03292,,"San Bernardino Rd and Orange Ave",,  34.090157,-117.941408,,,0,
03299,,"Badillo St and Armel Dr",,  34.086483,-117.902746,,,0,
03300,,"Badillo St and Citrus Ave",,  34.086388,-117.890454,,,0,
03301,,"Badillo St and Hollenbeck Ave",,  34.086447,-117.899219,,,0,
03302,,"Badillo St and Fourth Ave",,  34.086411,-117.894711,,,0,
03303,,"San Bernardino Rd and Foxdale Ave",,  34.089977,-117.937649,,,0,
03304,,"San Bernardino Rd and Azusa Ave",,  34.089123,-117.908117,,,0,
03306,,"San Bernardino Rd and Irwindale Ave",,  34.089915,-117.934449,,,0,
03307,,"San Bernardino Rd and Rimsdale Ave",,  34.088843,-117.911109,,,0,
03308,,"San Bernardino Rd and Vincent Ave",,  34.089643,-117.925198,,,0,
03309,,"San Bernardino Rd and Woodgrove Ave",,  34.089800,-117.929954,,,0,
03311,,"Azusa Ave and Badillo St",,  34.086600,-117.907611,,,0,
03312,,"Citrus Ave and Rowland St",,  34.078825,-117.889939,,,0,
03316,,"Central Ave and 2nd St",,  34.019882,-117.951251,,,0,
03319,,"Valley Blvd and Brea Canyon Rd E",,  34.020256,-117.839901,,,0,
03321,,"Valley Blvd and Covina Blvd",,  34.050270,-117.997873,,,0,
03322,,"Valley Blvd and Ferrero Ln E",,  34.011094,-117.938074,,,0,
03323,,"Valley Blvd and Morganfield Ave",,  34.002041,-117.874995,,,0,
03324,,"Valley Blvd and Pierre Rd E",,  34.015786,-117.849351,,,0,
03325,,"Valley Blvd and Nogales St E",,  34.002535,-117.885621,,,0,
03326,,"Valley Blvd and San Angelo Ave",,  34.051567,-117.999946,,,0,
03327,,"Valley Blvd and Sentous Ave E",,  34.001816,-117.880785,,,0,
03329,,"Valley Blvd and Suzanne Rd E",,  34.017634,-117.846153,,,0,
03331,,"Valley Blvd and Wickford Ave",,  34.010041,-117.931997,,,0,
03332,,"Valley Blvd and Workman Mill Rd E",,  34.044866,-117.989368,,,0,
03333,,"Valley Blvd and Grand Ave",,  34.027239,-117.836037,,,0,
03337,,"Old Valley Blvd and Common Ave",,  34.015728,-117.948524,,,0,
03339,,"Stimson Ave and 2nd St",,  34.018239,-117.951292,,,0,
03340,,"Mayor Dave Way and Glendora Ave",,  34.020181,-117.954409,,,0,
03341,,"Mayor Dave Way and Hacienda Blvd",,  34.023253,-117.956754,,,0,
03342,,"Azusa Way and Valley Blvd",,  34.009466,-117.925510,,,0,
03343,,"Valley Blvd and Fairway Dr",,  34.003012,-117.871282,,,0,
03344,,"Valley Blvd and Garvey Ave E",,  34.062565,-118.019142,,,0,
03345,,"Valley Blvd and Giano Ave",,  34.006446,-117.909679,,,0,
03349,,"Valley Blvd and Fullerton Rd",,  34.005447,-117.903480,,,0,
03350,,"Valley Blvd and 5th Ave",,  34.039750,-117.982029,,,0,
03351,,"Valley Blvd and 7th Ave E",,  34.034522,-117.974409,,,0,
03353,,"Valley Blvd and California Ave E",,  34.031048,-117.969450,,,0,
03354,,"Valley Blvd and Durfee Ave",,  34.059488,-118.013027,,,0,
03355,,"Valley Blvd and Hambledon Ave E",,  34.007633,-117.917032,,,0,
03356,,"Valley Blvd and Lemon Ave",,  34.009791,-117.858502,,,0,
03357,,"Valley Blvd and Maxson Rd",,  34.060549,-118.015130,,,0,
03358,,"Valley Blvd and Moutain View Rd",,  34.063856,-118.021094,,,0,
03361,,"Valley Blvd and Proctor Ave E",,  34.022559,-117.960209,,,0,
03362,,"Valley Blvd and La Seda Rd",,  34.004635,-117.898479,,,0,
03363,,"Valley Blvd and Turnbull Canyon Rd",,  34.027092,-117.964263,,,0,
03364,,"Valley Blvd and Brea Canyon Rd W",,  34.020164,-117.840644,,,0,
03366,,"Valley Blvd and Camino de Teodoro",,  34.003232,-117.871436,,,0,
03367,,"Valley Blvd and Bourdet Ave",,  34.007452,-117.863184,,,0,
03369,,"Valley Blvd and Covina Blvd",,  34.050539,-117.997794,,,0,
03370,,"Valley Blvd and Ferrero Ln W",,  34.011264,-117.937615,,,0,
03371,,"Grand Ave and Valley Blvd",,  34.027618,-117.835765,,,0,
03373,,"Valley Blvd and Morganfield Ave",,  34.002187,-117.875664,,,0,
03374,,"Valley Blvd and Pierre Rd W",,  34.015631,-117.850061,,,0,
03375,,"Valley Blvd and Workman Mill Rd W",,  34.044988,-117.989314,,,0,
03377,,"Valley Blvd and Nogales St W",,  34.003086,-117.887366,,,0,
03379,,"Valley Blvd and Sentous Ave W",,  34.002074,-117.880815,,,0,
03381,,"Valley Blvd and Suzanne Rd W",,  34.017854,-117.846343,,,0,
03385,,"Old Valley Blvd and Common Ave",,  34.015938,-117.948557,,,0,
03386,,"Old Valley Blvd and Stimson Ave",,  34.017942,-117.951239,,,0,
03389,,"Mayor Dave Way and Hacienda Blvd",,  34.023323,-117.956190,,,0,
03390,,"Valley Blvd and Azusa Way",,  34.009359,-117.926071,,,0,
03391,,"Valley Blvd and Garvey Ave W",,  34.063095,-118.019489,,,0,
03394,,"Valley Blvd and Giano Ave",,  34.006630,-117.909230,,,0,
03400,,"Valley Blvd and Alderton Ave",,  34.007237,-117.912978,,,0,
03401,,"Valley Blvd and California Ave W",,  34.031677,-117.969809,,,0,
03402,,"Valley Blvd and Durfee Ave",,  34.059758,-118.012981,,,0,
03403,,"Valley Blvd and Hambledon Ave W",,  34.007938,-117.917270,,,0,
03404,,"Valley Blvd and Lemon Ave",,  34.009459,-117.859627,,,0,
03405,,"Valley Blvd and Maxson Rd",,  34.060823,-118.015091,,,0,
03407,,"Valley Blvd & Peck Rd",,  34.069183,-118.028194,,,0,
03408,,"Valley Blvd and Proctor Ave W",,  34.022774,-117.959972,,,0,
03409,,"Valley Blvd and La Seda Rd",,  34.004918,-117.898611,,,0,
03410,,"Valley Blvd and Turnbull Canyon Rd",,  34.027699,-117.964573,,,0,
03411,,"Valley Blvd and Yorbita Rd",,  34.005705,-117.903483,,,0,
03413,,"Old Valley Blvd and Hofgaarden St",,  34.013634,-117.944923,,,0,
03414,,"Central Ave and Stimson Ave",,  34.019330,-117.950321,,,0,
03423,,"Peck Rd and Lower Azusa Rd",,  34.090756,-118.014412,,,0,
03424,,"Peck Rd and Lower Azusa Rd",,  34.091105,-118.014568,,,0,
03441,,"Peck Rd and Valley Blvd",,  34.069026,-118.027719,,,0,
03447,,"Myrtle Ave and Longden Ave",,  34.113468,-118.003362,,,0,
03449,,"Peck Rd and Stewart St",,  34.071648,-118.025012,,,0,
03452,,"Peck Rd and Bryant Rd",,  34.078551,-118.020487,,,0,
03456,,"Peck Rd and Foothill Transit Way",,  34.104705,-118.007554,,,0,
03457,,"Peck Rd and Foothill Transit Way",,  34.104721,-118.007897,,,0,
03461,,"Peck Rd and Ramona Blvd",,  34.074303,-118.022620,,,0,
03462,,"Peck Rd and Ramona Blvd",,  34.073855,-118.023117,,,0,
03463,,"Peck Rd and Live Oak Ave",,  34.110910,-118.004558,,,0,
03464,,"Myrtle Ave and Live Oak Ave",,  34.111259,-118.004713,,,0,
03466,,"Myrtle Ave and Cypress Ave",,  34.139375,-118.000977,,,0,
03467,,"Primrose Ave and Foothill Blvd",,  34.151053,-118.003297,,,0,
03485,,"Peck Rd and Basye St",,  34.080679,-118.019361,,,0,
03486,,"Peck Rd and Lambert Ave",,  34.083235,-118.018103,,,0,
03487,,"Peck Rd and Emery St",,  34.086868,-118.016321,,,0,
03489,,"Peck Rd and Hemlock St",,  34.096480,-118.011602,,,0,
03490,,"Peck Rd and Rio Hondo Pkwy",,  34.099382,-118.010186,,,0,
03491,,"Peck Rd and Clark St",,  34.102397,-118.008703,,,0,
03492,,"Myrtle Ave and Longden Ave",,  34.113462,-118.003015,,,0,
03493,,"Myrtle Ave and Wyland Way N",,  34.118236,-118.001268,,,0,
03498,,"Myrtle Ave and Duarte Rd",,  34.132004,-118.000728,,,0,
03502,,"Primrose Ave and Walnut Ave",,  34.143964,-118.002987,,,0,
03503,,"Primrose Ave and Colorado Blvd",,  34.145728,-118.003010,,,0,
03504,,"Primrose Ave and Lime Ave",,  34.147772,-118.002997,,,0,
03505,,"Palm Ave and Primrose Ave",,  34.149185,-118.003499,,,0,
03506,,"Magnolia Ave and Foothill Blvd",,  34.151169,-118.005347,,,0,
03507,,"Primrose Ave and Lime Ave",,  34.147767,-118.003225,,,0,
03508,,"Primrose Ave and Colorado Blvd",,  34.145591,-118.003185,,,0,
03509,,"Primrose Ave and Walnut Ave",,  34.143826,-118.003158,,,0,
03510,,"Magnolia Ave and Maple Ave",,  34.140933,-118.005316,,,0,
03513,,"Myrtle Ave and Duarte Rd",,  34.131830,-118.000885,,,0,
03515,,"Myrtle Ave and El Sur St",,  34.126595,-118.001770,,,0,
03518,,"Myrtle Ave and Wyland Way S",,  34.117763,-118.001458,,,0,
03520,,"Peck Rd and Rio Hondo Pkwy",,  34.099346,-118.010533,,,0,
03521,,"Peck Rd and Hemlock St",,  34.096444,-118.011949,,,0,
03523,,"Peck Rd and Emery St",,  34.086450,-118.016846,,,0,
03524,,"Peck Rd and Lambert Ave",,  34.082438,-118.018826,,,0,
03525,,"Peck Rd and Basye St",,  34.080643,-118.019708,,,0,
03526,,"Peck Rd and Bryant Rd",,  34.078928,-118.020553,,,0,
03528,,"Peck Rd and Stewart St",,  34.071740,-118.025373,,,0,
03589,,"Flower St. and 3rd St.",,  34.054065,-118.253821,,,0,
03607,,"Irwindale Gold Line Station",,  34.128784,-117.933676,,,0,
03614,,"Hungtington Dr and Golden West Ave W",,  34.131396,-118.061128,,,0,
03615,,"Hungtington Dr and Golden West Ave E",,  34.131120,-118.060432,,,0,
03622,,"Flower St and Pico Blvd (LA Convention Center)",,  34.039968,-118.266978,,,0,
03623,,"Pico Blvd and Flower St (LA Convention Center)",,  34.040319,-118.267231,,,0,
03624,,"Olympic Blvd and Flower St",,  34.044378,-118.262929,,,0,
03625,,"Mountain Vista Plaza",,  34.138302,-117.983443,,,0,
03626,,"Buena Vista St and Huntington Dr N",,  34.140806,-117.977464,,,0,
03627,,"Royal Oaks Dr and Buena Vista St",,  34.143209,-117.977227,,,0,
03628,,"Royal Oaks Dr and Cotter Ave",,  34.143232,-117.973388,,,0,
03629,,"Royal Oaks Dr and Highland Ave",,  34.143302,-117.966175,,,0,
03630,,"Royal Oaks Dr and Bradbourne Ave",,  34.143038,-117.959764,,,0,
03631,,"Royal Oaks Dr and Mount Olive Dr",,  34.143320,-117.955801,,,0,
03632,,"Vineyard Ave and Royal Oaks Dr",,  34.144105,-117.948996,,,0,
03633,,"Vineyard Ave and Conata St",,  34.147478,-117.949014,,,0,
03634,,"Vineyard Ave and Sunnydale Dr",,  34.150314,-117.949009,,,0,
03635,,"Las Lomas Rd and Markwood St",,  34.149402,-117.946978,,,0,
03636,,"Las Lomas Rd and Gardi St",,  34.144786,-117.946970,,,0,
03637,,"Royal Oaks Dr and Las Lomas Rd",,  34.143634,-117.946207,,,0,
03638,,"Royal Oaks Dr and Greenbank Ave",,  34.144903,-117.943161,,,0,
03640,,"Deerlane Dr and Fieldview Ave",,  34.148881,-117.940732,,,0,
03641,,"Brookridge Rd and Opal Canyon Rd",,  34.151566,-117.938220,,,0,
03644,,"Encanto Pkwy and Encanto Park",,  34.143754,-117.936791,,,0,
03645,,"Encanto Pkwy and Hacienda Dr",,  34.140266,-117.940174,,,0,
03646,,"Encanto Pkwy and Avila Gardens Residence",,  34.138703,-117.942975,,,0,
03647,,"Huntington Dr and Pops Rd",,  34.139758,-117.969091,,,0,
03648,,"Buena Vista St and Royal Oaks Dr",,  34.142788,-117.977626,,,0,
03649,,"Buena Vista St and Huntington Dr S",,  34.140760,-117.977610,,,0,
03650,,"Buena Vista St and Maynard Dr",,  34.137931,-117.977626,,,0,
03651,,"Bloomdale St and Buena Vista St",,  34.137396,-117.976936,,,0,
03652,,"Brycedale Ave and Huntington Dr",,  34.139355,-117.974344,,,0,
03653,,"Huntington Dr and Duarte City Hall",,  34.139571,-117.970289,,,0,
03654,,"Best Buy Roadway",,  34.137035,-117.984883,,,0,
03655,,"Highland Ave and Huntington Dr S",,  34.139218,-117.966689,,,0,
03656,,"Highland Ave and Business Center Pkwy S",,  34.133706,-117.966708,,,0,
03657,,"Mountain Ave and Evergreen St",,  34.134160,-117.986413,,,0,
03658,,"Galen St and Delford Ave",,  34.126922,-117.979571,,,0,
03659,,"Galen St and Newington St",,  34.126363,-117.983751,,,0,
03660,,"Beckville St and Mountain Ave",,  34.125693,-117.988847,,,0,
03661,,"Mountain Ave and Newington St",,  34.128739,-117.987949,,,0,
03662,,"Mountain Ave and Hurstview St",,  34.130669,-117.987189,,,0,
03663,,"Mountain Ave and Evergreen St (Walmart)",,  34.133750,-117.986262,,,0,
03664,,"Mountain Ave and Huntington Dr",,  34.139233,-117.986238,,,0,
03665,,"Mountain Ave and Hurstview St",,  34.129990,-117.987610,,,0,
03666,,"Mountain Ave and Euclid Ave",,  34.128131,-117.988330,,,0,
03667,,"Beckville St and Mountain Ave",,  34.125576,-117.988880,,,0,
03668,,"Hurlock Ave and Broach Ave",,  34.127974,-117.982880,,,0,
03669,,"Kellwil Way and Delford Ave",,  34.128636,-117.979574,,,0,
03670,,"Kellwil Way and Buena Vista St",,  34.128646,-117.977779,,,0,
03671,,"Business Center Dr and Highland Ave",,  34.134323,-117.966979,,,0,
03672,,"Duncannon Ave and Evergreen Ave",,  34.135277,-117.972623,,,0,
03673,,"Buena Vista St and Bloomdale St",,  34.137365,-117.977485,,,0,
03674,,"Royal Oaks Dr and Encanto Pkwy",,  34.145285,-117.935491,,,0,
03675,,"Royal Oaks Dr and Mountaincrest Rd",,  34.145351,-117.937718,,,0,
03678,,"Brookridge Rd and Opal Canyon Rd",,  34.151510,-117.938838,,,0,
03679,,"Deerlane Dr and Melcanyon Rd",,  34.149001,-117.940063,,,0,
03681,,"Royal Oaks Dr and Greenbank Ave",,  34.145035,-117.943179,,,0,
03682,,"Royal Oaks Dr and Park View Ct",,  34.143474,-117.947967,,,0,
03683,,"Royal Oaks Dr and Mount Olive Dr",,  34.143447,-117.956130,,,0,
03684,,"Highland Ave and 1st St",,  34.142090,-117.966683,,,0,
03685,,"Rosemead Blvd and Del Mar Blvd",,  34.142556,-118.073515,,,0,
03686,,"Rosemead Blvd and Blanche St",,  34.142677,-118.073146,,,0,
06112,,"Cameron Ave and Barranca St W",,  34.060790,-117.881313,,,0,
06118,,"Rosemead Blvd and California Blvd W",,  34.135221,-118.073049,,,0,
06119,,"Rosemead Blvd and California Blvd E",,  34.134100,-118.073382,,,0,
06121,,"Hurley St and Azusa Ave E",,  34.011131,-117.923242,,,0,
06122,,"Hurley St and Azusa Ave W",,  34.011190,-117.922809,,,0,
06123,,"Base Line Rd and Indian Hill Blvd",,  34.121659,-117.721187,,,0,
06129,,"Covina Transit Center",,  34.100062,-117.889768,,,0,
06130,,"Grand Ave and Carter Dr E",,  34.107083,-117.872481,,,0,
06131,,"Arrow Hwy and Citrus Ave S",,  34.106677,-117.889777,,,0,
place_AzGL,,"Azusa Intermodal Transit Center",,  34.136109,-117.906419,,,1,
place_CiGL,,"Citrus Gold Line Station",,  34.135898,-117.889260,,,1,
place_EMS,,"El Monte Station",,  34.072106,-118.044699,,,1,
place_SMSG,,"Sierra Madre and San Gabriel",,  34.146630,-117.908995,,,1,
