stop_id,stop_code,stop_name,stop_desc,stop_lat,stop_lon,zone_id,stop_url,location_type
0002,0002,L.B. BLVD. & 8TH NE,,33.776887,-118.18922,,,0
0004,0004,L.B. BLVD. & 10TH NE,,33.779309,-118.189205,,,0
0005,0005,L.B. BLVD. & ANAHEIM NE,,33.783125,-118.189196,,,0
0006,0006,L.B. BLVD. & 15TH NE,,33.786011,-118.189187,,,0
0007,0007,L.B. BLVD. & 17TH NE,,33.788309,-118.189211,,,0
0008,0008,PCH & LOCUST NE,,33.789935,-118.19095,,,0
0009,0009,PCH & PACIFIC NW,,33.789914,-118.194307,,,0
0011,0011,PCH & MAGNOLIA NW,,33.789962,-118.198496,,,0
0012,0012,PCH & MAINE NW,,33.789952,-118.201007,,,0
0013,0013,HARBOR & PCH NE,,33.790258,-118.210417,,,0
0014,0014,HARBOR & 19TH NE,,33.791851,-118.210431,,,0
0015,0015,EASY & 20TH NE,,33.793663,-118.209955,,,0
0016,0016,EASY & 21ST NE,,33.795487,-118.210002,,,0
0017,0017,EASY & HILL NE,,33.797219,-118.20995,,,0
0018,0018,EASY & 23RD NE,,33.799081,-118.210001,,,0
0019,0019,EASY & BURNETT NE,,33.800846,-118.209943,,,0
0020,0020,EASY & 25TH NE,,33.802676,-118.209948,,,0
0021,0021,EASY & WILLOW NE,,33.804657,-118.209985,,,0
0022,0022,EASY & 27TH NE,,33.806295,-118.209947,,,0
0023,0023,EASY & 28TH NE,,33.808116,-118.209945,,,0
0024,0024,EASY & 29TH NE,,33.809927,-118.209936,,,0
0025,0025,EASY & SPRING NE,,33.811856,-118.21,,,0
0026,0026,EASY & 32ND NE,,33.815506,-118.209928,,,0
0027,0027,EASY & 33RD NE,,33.817302,-118.209994,,,0
0028,0028,EASY & 34TH SE,,33.81869,-118.210011,,,0
0029,0029,DELTA & TAPER NE,,33.819836,-118.211087,,,0
0031,0031,WARDLOW & SANTA FE NW,,33.824485,-118.215945,,,0
0032,0032,DELTA & WARDLOW SW,,33.823444,-118.211172,,,0
0033,0033,DELTA & ARLINGTON SW,,33.821208,-118.211159,,,0
0034,0034,DELTA & 34TH NW,,33.819097,-118.211171,,,0
0036,0036,EASY & 33RD SW,,33.816873,-118.210085,,,0
0037,0037,EASY & 32ND SW,,33.815046,-118.210074,,,0
0038,0038,EASY & SPRING SW,,33.811433,-118.210088,,,0
0039,0039,EASY & 29TH SW,,33.809647,-118.2101,,,0
0040,0040,EASY & 28TH SW,,33.807814,-118.210109,,,0
0041,0041,EASY & 27TH SW,,33.806006,-118.210084,,,0
0042,0042,EASY & WILLOW SW,,33.80403,-118.210063,,,0
0043,0043,EASY & 25TH SW,,33.802401,-118.210075,,,0
0044,0044,EASY & BURNETT SW,,33.800631,-118.210068,,,0
0045,0045,EASY & 23RD SW,,33.798765,-118.210096,,,0
0046,0046,EASY & HILL SW,,33.796853,-118.210078,,,0
0047,0047,EASY & 21ST SW,,33.795108,-118.210097,,,0
0048,0048,HARBOR & 20TH SW,,33.79328,-118.210592,,,0
0049,0049,HARBOR & 19TH SW,,33.791433,-118.210588,,,0
0050,0050,PCH & HARBOR SW,,33.789812,-118.21063,,,0
0051,0051,PCH & OREGON SE,,33.789782,-118.200727,,,0
0052,0052,PCH & HENDERSON SE,,33.789771,-118.197436,,,0
0054,0054,PCH & PACIFIC SE,,33.789761,-118.193365,,,0
0055,0055,PCH & PINE SE,,33.789758,-118.192088,,,0
0057,0057,L.B. BLVD. & PCH SW,,33.789531,-118.189603,,,0
0058,0058,L.B. BLVD. & 16TH SW,,33.786791,-118.18959,,,0
0059,0059,L.B. BLVD. & 15TH SW,,33.785038,-118.189566,,,0
0060,0060,L.B. BLVD. & ANAHEIM SW,,33.782172,-118.189576,,,0
0062,0062,L.B. BLVD. & 10TH SW,,33.778507,-118.189541,,,0
0063,0063,L.B. BLVD. & 8TH SW,,33.776111,-118.189589,,,0
0065,0065,3RD & CEDAR NE,,33.770585,-118.194627,,,0
0068,0068,MAGNOLIA & 3RD NE,,33.770802,-118.198,,,0
0070,0070,MAGNOLIA & 5TH NE,,33.773094,-118.198002,,,0
0072,0072,MAGNOLIA & 7TH NE,,33.775589,-118.198024,,,0
0074,0074,MAGNOLIA & 9TH NE,,33.778018,-118.19802,,,0
0076,0076,MAGNOLIA & 11TH NE,,33.780428,-118.198023,,,0
0077,0077,ANAHEIM & CHESTNUT NW,,33.782727,-118.196745,,,0
0078,0078,ANAHEIM & OREGON NE,,33.78269,-118.200838,,,0
0079,0079,ANAHEIM & CASPIAN NW,,33.782868,-118.212481,,,0
0081,0081,SANTA FE & COWLES NE,,33.78497,-118.215399,,,0
0082,0082,SANTA FE & 16TH NE,,33.787572,-118.215389,,,0
0083,0083,SANTA FE & PCH NE,,33.790183,-118.215379,,,0
0084,0084,SANTA FE & 19TH NE,,33.791944,-118.215364,,,0
0085,0085,SANTA FE & 20TH NE,,33.793736,-118.215315,,,0
0086,0086,SANTA FE & HILL NE,,33.797676,-118.215356,,,0
0087,0087,SANTA FE & 23RD NE,,33.799215,-118.215315,,,0
0088,0088,SANTA FE & 25TH SE,,33.802274,-118.215329,,,0
0089,0089,SANTA FE & 25TH NE,,33.802477,-118.215329,,,0
0090,0090,SANTA FE & WILLOW NE,,33.805045,-118.215314,,,0
0091,0091,SANTA FE & LA VERE E,,33.806648,-118.215372,,,0
0093,0093,SANTA FE & COLUMBIA NE,,33.809352,-118.215366,,,0
0095,0095,SANTA FE & SPRING NE,,33.811896,-118.215326,,,0
0096,0096,SANTA FE & 31ST NE,,33.814254,-118.215356,,,0
0097,0097,SANTA FE & 33RD SE,,33.816993,-118.215382,,,0
0098,0098,SANTA FE & 34TH NE,,33.819107,-118.215326,,,0
0099,0099,SANTA FE & ARLINGTON NE,,33.82156,-118.215384,,,0
0100,0100,SANTA FE & WARDLOW NE,,33.825223,-118.215538,,,0
0103,0103,VIA ORO & HUGHES WAY NE,,33.829055,-118.212469,,,0
0104,0104,SANTA FE @ ANAHEIM NE,,33.783022,-118.215416,,,0
0105,0105,WARDLOW & R/R TRACKS NE,,33.824451,-118.218111,,,0
0106,0106,WARDLOW & WEBSTER NW,,33.824458,-118.220264,,,0
0107,0107,MCHELEN & WARDLOW NE,,33.824658,-118.22223,,,0
0108,0108,MCHELEN & 221ST NE,,33.826749,-118.222239,,,0
0109,0109,MCHELEN & 220TH NE,,33.828329,-118.222257,,,0
0110,0110,MCHELEN & 219TH NE,,33.829525,-118.222161,,,0
0111,0111,BATTAAN & CARSON SE,,33.83158,-118.223375,,,0
0112,0112,CARSON & HARBOR VW. SE,,33.831705,-118.221432,,,0
0113,0113,SANTA FE & CARSON NE,,33.832116,-118.216678,,,0
0114,0114,SANTA FE & MADISON SE,,33.834466,-118.215895,,,0
0115,0115,SANTA FE & VAN BUREN NE,,33.837141,-118.21489,,,0
0116,0116,GARFIELD & JEFFERSON NE,,33.893072,-118.168719,,,0
0117,0117,GARFIELD & JEFFERSON SW,,33.892687,-118.168867,,,0
0118,0118,GARFIELD & SOMERSET NE,,33.896647,-118.168746,,,0
0119,0119,GARFIELD & SOMERSET SW,,33.896207,-118.168892,,,0
0120,0120,Garfield & Petrol NW,,33.898642,-118.168915,,,0
0121,0121,WARDLOW & SANTA FE SE,,33.824225,-118.215117,,,0
0123,0123,CARSON & HARBOR VW. NW,,33.831803,-118.221976,,,0
0124,0124,BATAAN & CARSON SW,,33.831487,-118.223477,,,0
0125,0125,MCHELEN & 219TH SW,,33.829263,-118.222308,,,0
0126,0126,MCHELEN & 220TH SW,,33.827977,-118.222404,,,0
0127,0127,MCHELEN & 221ST SW,,33.826565,-118.222377,,,0
0129,0129,WARDLOW & WEBSTER SE,,33.824228,-118.219827,,,0
0130,0130,WARDLOW & R/R TRACKS SW,,33.824246,-118.218328,,,0
0131,0131,SANTA FE & WARDLOW SW,,33.824066,-118.215588,,,0
0132,0132,HUGHES WAY & VIA ORO NW,,33.828698,-118.213194,,,0
0134,0134,SANTA FE & WARNOCK SW,,33.825862,-118.215991,,,0
0135,0135,SANTA FE & ARLINGTON SW,,33.821161,-118.215587,,,0
0136,0136,SANTA FE & 34TH SW,,33.818449,-118.215574,,,0
0137,0137,SANTA FE & 33RD W,,33.816864,-118.215652,,,0
0138,0138,SANTA FE & 31ST SW,,33.813844,-118.215578,,,0
0139,0139,SANTA FE & SPRING SW,,33.811426,-118.215575,,,0
0140,0140,SANTA FE & COLUMBIA SW,,33.808911,-118.215605,,,0
0142,0142,SANTA FE & LA VERE SW,,33.806405,-118.215599,,,0
0143,0143,SANTA FE & WILLOW SW,,33.804064,-118.215553,,,0
0144,0144,SANTA FE & 25TH SW,,33.802289,-118.215559,,,0
0145,0145,SANTA FE & BURNETT SW,,33.800575,-118.215557,,,0
0146,0146,SANTA FE & 23RD SW,,33.798723,-118.215579,,,0
0147,0147,SANTA FE & HILL SW,,33.796917,-118.215548,,,0
0148,0148,SANTA FE & 21ST NW,,33.795422,-118.215584,,,0
0149,0149,COWLES & SANTA FE SW,,33.784606,-118.215659,,,0
0150,0150,SANTA FE & 19TH SW,,33.791633,-118.215584,,,0
0151,0151,SANTA FE & PCH SW,,33.789391,-118.215601,,,0
0152,0152,SANTA FE & 16TH NW,,33.787149,-118.215635,,,0
0153,0153,SANTA FE & COWLES SW,,33.784442,-118.215638,,,0
0154,0154,ANAHEIM & SANTA FE SE,,33.782583,-118.215064,,,0
0155,0155,ANAHEIM & HARBOR SW,,33.782624,-118.210588,,,0
0156,0156,ANAHEIM & OREGON SE,,33.782622,-118.200595,,,0
0157,0157,MAGNOLIA & ANAHEIM SW,,33.782499,-118.198153,,,0
0158,0158,MAGNOLIA & 11TH SW,,33.77996,-118.198137,,,0
0160,0160,MAGNOLIA & 9TH SW,,33.777537,-118.198154,,,0
0162,0162,MAGNOLIA & 7TH SW,,33.775083,-118.198148,,,0
0164,0164,MAGNOLIA & 5TH SW,,33.77275,-118.19811,,,0
0167,0167,BROADWAY & MAGNOLIA SE,,33.769253,-118.197812,,,0
0169,0169,BROADWAY & MAINE SE,,33.769227,-118.200359,,,0
0170,0170,OCEAN & HART PL SE,,33.766679,-118.188515,,,0
0172,0172,OCEAN & LINDEN SW,,33.7664,-118.18627,,,0
0173,0173,OCEAN & ATLANTIC SE,,33.766226,-118.184888,,,0
0175,0175,OCEAN & 1ST PL SE,,33.766069,-118.181173,,,0
0176,0176,OCEAN & 3RD PL SE,,33.765874,-118.179419,,,0
0177,0177,OCEAN & 5TH PL SE,,33.765651,-118.177718,,,0
0178,0178,OCEAN & 7TH PLACE SE,,33.765421,-118.175869,,,0
0179,0179,OCEAN & 11TH PL SE,,33.764904,-118.172199,,,0
0180,0180,CHERRY & OCEAN NE,,33.764901,-118.168286,,,0
0181,0181,CHERRY & BROADWAY NE,,33.767551,-118.167776,,,0
0182,0182,CHERRY & 3RD NE,,33.769246,-118.167593,,,0
0183,0183,CHERRY & 4TH NE,,33.771939,-118.167593,,,0
0184,0184,CHERRY & 7TH NE,,33.775651,-118.167628,,,0
0185,0185,CHERRY & 10TH NE,,33.779309,-118.167606,,,0
0186,0186,CHERRY & ANAHEIM NE,,33.783174,-118.167596,,,0
0187,0187,CHERRY & 14TH NE,,33.784642,-118.167603,,,0
0188,0188,CHERRY & 15TH NE,,33.786428,-118.167613,,,0
0189,0189,CHERRY & PCH NE,,33.790248,-118.167578,,,0
0191,0191,CHERRY & 21TH NE,,33.79562,-118.167608,,,0
0192,0192,CHERRY & HILL NE,,33.797634,-118.167514,,,0
0193,0193,CHERRY & BURNETT NE,,33.80105,-118.167478,,,0
0194,0194,CHERRY & WILLOW NE,,33.804732,-118.167554,,,0
0196,0196,CHERRY & 28TH NE,,33.808348,-118.167502,,,0
0198,0198,CHERRY & SPRING NE,,33.812289,-118.167457,,,0
0199,0199,CHERRY & 33RD SE,,33.81677,-118.167532,,,0
0200,0200,CHERRY & WARDLOW NE,,33.819174,-118.167454,,,0
0201,0201,CHERRY & 36TH NE,,33.822447,-118.167425,,,0
0202,0202,CHERRY & 37TH E,,33.824747,-118.16742,,,0
0203,0203,CHERRY & BIXBY NE,,33.826981,-118.167447,,,0
0205,0205,CHERRY & CARSON NE,,33.832773,-118.167426,,,0
0206,0206,CARSON & CHERRY SE,,33.832364,-118.167102,,,0
0207,0207,CARSON & CHERRY NW,,33.832544,-118.168071,,,0
0208,0208,CHERRY & TEHACHAPI E,,33.836847,-118.167379,,,0
0209,0209,CHERRY & 45TH SE,,33.838262,-118.167378,,,0
0211,0211,CHERRY & SAN ANTONIO SE,,33.845976,-118.16738,,,0
0212,0212,CHERRY & DEL AMO NE,,33.847372,-118.167392,,,0
0213,0213,CHERRY & DENMEAD NE,,33.851219,-118.167489,,,0
0214,0214,CHERRY & CANDLEWOOD NE,,33.854585,-118.167703,,,0
0215,0215,CHERRY & 55TH NE,,33.856296,-118.168366,,,0
0216,0216,CHERRY & SOUTH NE,,33.860543,-118.168431,,,0
0217,0217,CHERRY & HUNGARFORD NE,,33.863124,-118.168491,,,0
0218,0218,CHERRY & 61ST NE,,33.865866,-118.1685,,,0
0219,0219,CHERRY & HARDING NE,,33.867685,-118.168507,,,0
0220,0220,CHERRY & 63RD NE,,33.869851,-118.168528,,,0
0222,0222,CHERRY & 65TH NE,,33.872703,-118.168527,,,0
0223,0223,CHERRY & ARTESIA SE,,33.87431,-118.168546,,,0
0224,0224,CHERRY & 68TH NE,,33.878655,-118.168579,,,0
0225,0225,GARFIELD & MOBILE HOME E,,33.883419,-118.168641,,,0
0226,0226,GARFIELD & JACKSON NE,,33.885714,-118.168652,,,0
0227,0227,GARFIELD & ALONDRA SE,,33.88881,-118.168681,,,0
0228,0228,GARFIELD & ALONDRA SW,,33.88834,-118.168828,,,0
0229,0229,GARFIELD & JACKSON SW,,33.885004,-118.168868,,,0
0230,0230,GARFIELD & MOBILE HOMES W,,33.883013,-118.168796,,,0
0231,0231,CHERRY & 68TH SW,,33.878044,-118.168827,,,0
0232,0232,CHERRY & ARTESIA SW,,33.874186,-118.168725,,,0
0233,0233,CHERRY & 65TH NW,,33.873028,-118.168701,,,0
0235,0235,CHERRY & 63RD SW,,33.869062,-118.168684,,,0
0236,0236,CHERRY & HARDING SW,,33.867147,-118.168665,,,0
0237,0237,CHERRY & 61ST SW,,33.865463,-118.168653,,,0
0238,0238,CHERRY & HUNGERFORD SW,,33.862698,-118.168637,,,0
0239,0239,CHERRY & SOUTH SW,,33.859865,-118.168679,,,0
0240,0240,CHERRY & 56TH SW,,33.857689,-118.168668,,,0
0241,0241,CHERRY & 55TH SW,,33.855774,-118.168499,,,0
0242,0242,CHERRY & MARKET SW,,33.854104,-118.167841,,,0
0243,0243,CHERRY & 52ND NW,,33.851125,-118.167785,,,0
0245,0245,CHERRY & SAN ANTONIO SW,,33.845647,-118.167669,,,0
0247,0247,CHERRY & CHERRY PARK SW,,33.840296,-118.167727,,,0
0248,0248,CHERRY & 45TH SW,,33.838191,-118.167749,,,0
0249,0249,CHERRY & TEHACHAPI SW,,33.836326,-118.167766,,,0
0250,0250,CHERRY & CARSON SW,,33.831829,-118.167626,,,0
0252,0252,CHERRY & BIXBY SW,,33.826456,-118.167594,,,0
0253,0253,CHERRY & 37TH SW,,33.824103,-118.167592,,,0
0254,0254,CHERRY & 36TH SW,,33.822032,-118.167589,,,0
0255,0255,CHERRY & WARDLOW SW,,33.818678,-118.167711,,,0
0256,0256,CHERRY & 33RD SW,,33.816904,-118.167779,,,0
0257,0257,CHERRY & SPRING SW,,33.811461,-118.167768,,,0
0258,0258,CHERRY & 29TH SW,,33.809622,-118.167755,,,0
0259,0259,CHERRY & 28TH SW,,33.807762,-118.167745,,,0
0261,0261,CHERRY & WILLOW SW,,33.803118,-118.167742,,,0
0262,0262,CHERRY & BURNETT SW,,33.800464,-118.167727,,,0
0263,0263,CHERRY & HILL SW,,33.796859,-118.167779,,,0
0264,0264,CHERRY & 21TH SW,,33.795037,-118.167851,,,0
0265,0265,CHERRY & 19TH NW,,33.792031,-118.167868,,,0
0266,0266,CHERRY & PCH SW,,33.789654,-118.167715,,,0
0267,0267,CHERRY & 15TH SW,,33.786065,-118.167744,,,0
0268,0268,CHERRY & 14TH SW,,33.784263,-118.16775,,,0
0269,0269,CHERRY & ANAHEIM SW,,33.782295,-118.167723,,,0
0270,0270,CHERRY & 10TH SW,,33.778729,-118.16771,,,0
0271,0271,CHERRY & 7TH SW,,33.775063,-118.167715,,,0
0272,0272,CHERRY & 4TH SW,,33.771407,-118.167721,,,0
0273,0273,CHERRY & 3RD SW,,33.768769,-118.167731,,,0
0274,0274,CHERRY & BROADWAY SW,,33.76704,-118.168015,,,0
0275,0275,OCEAN & CHERRY NW,,33.764582,-118.168755,,,0
0276,0276,OCEAN & GAVIOTA NW,,33.76508,-118.172229,,,0
0277,0277,OCEAN & ESPERANZA NW,,33.765539,-118.175829,,,0
0278,0278,OCEAN & ORANGE NW,,33.765778,-118.177606,,,0
0279,0279,OCEAN & CERRITOS NW,,33.766025,-118.179449,,,0
0280,0280,OCEAN & BONITO NW,,33.766248,-118.181286,,,0
0282,0282,OCEAN & ATLANTIC NW,,33.766511,-118.185313,,,0
0284,0284,OCEAN & ELM NW,,33.766866,-118.188239,,,0
0285,0285,CARSON & R/R TRACKS SW,,33.832349,-118.164485,,,0
0286,0286,PARAMOUNT & CARSON NE,,33.832932,-118.159866,,,0
0287,0287,PARAMOUNT & VILLAGE RD NE,,33.83505,-118.159887,,,0
0288,0288,PARAMOUNT & WARWOOD NE,,33.836452,-118.159886,,,0
0289,0289,PARAMOUNT & BOMBERRY NE,,33.838565,-118.159864,,,0
0290,0290,PARAMOUNT & GREENTOP NE,,33.840007,-118.159853,,,0
0291,0291,PARAMOUNT & FAIRMAN NE,,33.842098,-118.159857,,,0
0292,0292,PARAMOUNT & ARBOR RD NE,,33.843307,-118.159845,,,0
0293,0293,PARAMOUNT & DEL AMO NE,,33.847526,-118.159789,,,0
0294,0294,PARAMOUNT & HARDWICK NE,,33.850455,-118.159794,,,0
0295,0295,CANDLEWOOD & PARAMOUNT SE,,33.853755,-118.159534,,,0
0296,0296,CANDLEWOOD & OBISPO SE,,33.853806,-118.154544,,,0
0297,0297,DOWNEY & CANDLEWOOD NE,,33.854349,-118.151133,,,0
0298,0298,DOWNEY & MICHELSON NE,,33.857081,-118.151094,,,0
0299,0299,DOWNEY & ST. PANCRATIUS NE,,33.858803,-118.151161,,,0
0300,0300,DOWNEY & SOUTH NE,,33.860638,-118.151118,,,0
0301,0301,DOWNEY & 59TH NE,,33.86304,-118.151152,,,0
0302,0302,DOWNEY & LA JARA NE,,33.865637,-118.151153,,,0
0303,0303,DOWNEY & ASHWORTH NE,,33.868236,-118.151191,,,0
0304,0304,DOWNEY & 64TH NE,,33.871253,-118.151203,,,0
0305,0305,DOWNEY & ARTESIA NE,,33.875026,-118.151217,,,0
0306,0306,DOWNEY & 68TH NE,,33.879414,-118.151257,,,0
0307,0307,DOWNEY & 70TH SE,,33.882371,-118.151269,,,0
0308,0308,DOWNEY & HARRISON NE,,33.884017,-118.151276,,,0
0312,0312,Atlantic & 1st SE,,33.767864,-118.184992,,,0
0313,0313,Atlantic & 4th St NW,,33.771941,-118.185141,,,0
0314,0314,Atlantic & 4th St NE,,33.771941,-118.184996,,,0
0315,0315,DOWNEY & 70TH SW,,33.881752,-118.151449,,,0
0316,0316,DOWNEY & 68TH NW,,33.878535,-118.151361,,,0
0317,0317,DOWNEY & ARTESIA SW,,33.874339,-118.1514,,,0
0318,0318,DOWNEY & 64TH SW,,33.870865,-118.15138,,,0
0319,0319,DOWNEY & POPPY SW,,33.868851,-118.151321,,,0
0320,0320,DOWNEY & LA JARA SW,,33.865053,-118.151264,,,0
0321,0321,DOWNEY & 59TH NW,,33.863441,-118.151275,,,0
0322,0322,DOWNEY & SOUTH SW,,33.859789,-118.151285,,,0
0323,0323,DOWNEY & WOLFE NW,,33.858033,-118.151242,,,0
0324,0324,CANDLEWOOD & DOWNEY NW,,33.853895,-118.151593,,,0
0325,0325,CANDLEWOOD & OBISPO NW,,33.853887,-118.155618,,,0
0326,0326,PARAMOUNT & CANDLEWOOD SW,,33.853477,-118.159988,,,0
0327,0327,PARAMOUNT & HARDWICK NW,,33.850292,-118.159955,,,0
0328,0328,PARAMOUNT & DEL AMO SW,,33.846679,-118.160037,,,0
0329,0329,PARAMOUNT & ARBOR RD W,,33.843488,-118.159988,,,0
0330,0330,PARAMOUNT & GREENTOP NW,,33.840007,-118.159998,,,0
0331,0331,PARAMOUNT & BOMBERRY SW,,33.838565,-118.160002,,,0
0332,0332,PARAMOUNT & WARWOOD SW,,33.836452,-118.160028,,,0
0333,0333,PARAMOUNT & VILLAGE RD W,,33.834872,-118.160031,,,0
0334,0334,PARAMOUNT & CARSON NW,,33.832819,-118.16012,,,0
0335,0335,CARSON & R/R TRACKS NE,,33.832544,-118.163948,,,0
0337,0337,Atlantic at Broadway SW,,33.769078,-118.185135,,,0
0338,0338,ALAMITOS & 7TH NE,,33.775569,-118.180052,,,0
0339,0339,Atlantic & 6th St SW,,33.773922,-118.185119,,,0
0340,0340,4TH & ORANGE NW,,33.771794,-118.176708,,,0
0342,0342,ALAMITOS & NEW YORK SW,,33.784658,-118.177403,,,0
0344,0344,ALAMITOS & 6TH SE,,33.77394,-118.180565,,,0
0345,0345,ALAMITOS &  BROADWAY SE,,33.768991,-118.182075,,,0
0346,0346,ALAMITOS & ANAHEIM SW,,33.782371,-118.178109,,,0
0347,0347,ALAMITOS & 10TH NE,,33.779089,-118.178967,,,0
0348,0348,ALAMITOS & 10TH NW,,33.779078,-118.179122,,,0
0349,0349,ALAMITOS & 4TH NE,,33.771953,-118.181163,,,0
0350,0350,ALAMITOS AT 5TH SW,,33.772772,-118.18106,,,0
0351,0351,ATLANTIC & ANAHEIM SW,,33.782262,-118.185147,,,0
0352,0352,ATLANTIC & 11TH SW,,33.780753,-118.185121,,,0
0355,0355,TENTH & L.B. BLVD. NW,,33.779026,-118.189862,,,0
0356,0356,TENTH & PINE NW,,33.779068,-118.192676,,,0
0358,0358,ALAMITOS & 7TH SW,,33.775012,-118.18037,,,0
0360,0360,PACIFIC & 7TH SW,,33.775263,-118.193809,,,0
0362,0362,PACIFIC & 5TH SW,,33.772845,-118.193856,,,0
0364,0364,PACIFIC & 3RD SW,,33.770208,-118.193856,,,0
0366,0366,PACIFIC & OCEAN NW,,33.767437,-118.193794,,,0
0367,0367,OCEAN & CHESTNUT NW,,33.767364,-118.196531,,,0
0369,0369,3RD & MAGNOLIA NW,,33.77056,-118.198348,,,0
0374,0374,LONG BEACH BLVD & 1ST SE,,33.767883,-118.189291,,,0
0378,0378,LONG BEACH & 4TH SW,,33.771427,-118.189526,,,0
0382,0382,MAGNOLIA & ANAHEIM NE,,33.782879,-118.198009,,,0
0383,0383,MAGNOLIA & 14TH SE,,33.783873,-118.198044,,,0
0384,0384,MAGNOLIA & 15TH NE,,33.786432,-118.198043,,,0
0385,0385,MAGNOLIA & 17TH NE,,33.788325,-118.198058,,,0
0386,0386,MAGNOLIA & PCH NE,,33.790358,-118.198063,,,0
0387,0387,MAGNOLIA & 19TH NE,,33.791795,-118.198059,,,0
0388,0388,MAGNOLIA & 20TH NE,,33.793587,-118.198014,,,0
0389,0389,MAGNOLIA & 21ST NE,,33.795562,-118.198075,,,0
0390,0390,MAGNOLIA & HILL NE,,33.797387,-118.198059,,,0
0391,0391,MAGNOLIA & 23RD NE,,33.799217,-118.198074,,,0
0392,0392,MAGNOLIA & BURNETT NE,,33.801,-118.198068,,,0
0393,0393,MAGNOLIA & 25TH NE,,33.8028,-118.198039,,,0
0394,0394,MAGNOLIA & WILLOW NE,,33.804717,-118.198011,,,0
0395,0395,MAGNOLIA & 27TH NE,,33.806416,-118.198058,,,0
0396,0396,MAGNOLIA & 28TH NE,,33.808175,-118.198039,,,0
0397,0397,MAGNOLIA & 29TH NE,,33.810052,-118.198047,,,0
0398,0398,MAGNOLIA & SPRING NE,,33.811937,-118.198051,,,0
0400,0400,MAGNOLIA & 32ND NE,,33.815561,-118.198037,,,0
0401,0401,WARDLOW & MAGNOLIA SE,,33.818892,-118.197577,,,0
0403,0403,PACIFIC & BRETHREN MANOR W,,33.817898,-118.195405,,,0
0404,0404,PACIFIC PL & CEDAR NW,,33.817009,-118.19489,,,0
0405,0405,32ND & CHESTNUT NW,,33.815322,-118.196153,,,0
0408,0408,MAGNOLIA & SPRING SW,,33.811423,-118.198224,,,0
0409,0409,MAGNOLIA & 29TH SW,,33.809609,-118.198133,,,0
0410,0410,MAGNOLIA & 28TH SW,,33.807864,-118.198226,,,0
0411,0411,MAGNOLIA & 27TH SW,,33.806048,-118.198189,,,0
0412,0412,MAGNOLIA & WILLOW SW,,33.804094,-118.198148,,,0
0413,0413,MAGNOLIA & 25TH SW,,33.802363,-118.198163,,,0
0414,0414,MAGNOLIA & BURNETT SW,,33.800563,-118.198182,,,0
0415,0415,MAGNOLIA & 23RD SW,,33.798744,-118.198191,,,0
0416,0416,MAGNOLIA & HILL SW,,33.796906,-118.19816,,,0
0417,0417,MAGNOLIA & 21ST SW,,33.795139,-118.198132,,,0
0418,0418,MAGNOLIA & 20TH SW,,33.793249,-118.198191,,,0
0419,0419,MAGNOLIA & 19TH SW,,33.791504,-118.1982,,,0
0420,0420,MAGNOLIA & PCH SW,,33.789539,-118.198192,,,0
0421,0421,MAGNOLIA & 17TH SW,,33.78766,-118.198214,,,0
0422,0422,MAGNOLIA & 15TH SW,,33.785571,-118.198206,,,0
0423,0423,MAGNOLIA & 14TH SW,,33.783837,-118.198169,,,0
0424,0424,PACIFIC & 7TH NE,,33.775703,-118.193612,,,0
0425,0425,PACIFIC & 9TH NE,,33.777896,-118.19368,,,0
0426,0426,PACIFIC & 10TH NE,,33.779231,-118.193673,,,0
0427,0427,PACIFIC & ANAHEIM SE,,33.782337,-118.193668,,,0
0429,0429,PACIFIC & 14TH NE,,33.784153,-118.193655,,,0
0430,0430,PACIFIC & 15TH NE,,33.785537,-118.193651,,,0
0431,0431,PACIFIC & 16TH NE,,33.787313,-118.193652,,,0
0432,0432,PACIFIC & PCH NE,,33.790209,-118.193639,,,0
0433,0433,PACIFIC & 19TH NE,,33.791929,-118.193617,,,0
0434,0434,PACIFIC & 20TH NE,,33.79372,-118.193595,,,0
0435,0435,PACIFIC & 21ST NE,,33.795515,-118.193591,,,0
0436,0436,PACIFIC & HILL NE,,33.797362,-118.19359,,,0
0437,0437,PACIFIC & 23RD NE,,33.799199,-118.193606,,,0
0438,0438,PACIFIC & BURNETT NE,,33.801026,-118.193598,,,0
0439,0439,PACIFIC & 25TH NE,,33.802832,-118.193608,,,0
0440,0440,PACIFIC & WILLOW NE,,33.804689,-118.193632,,,0
0441,0441,PACIFIC & 27TH NE,,33.806426,-118.193667,,,0
0442,0442,PACIFIC & 28TH NE,,33.808245,-118.193625,,,0
0443,0443,PACIFIC & SPRING NE,,33.811773,-118.193646,,,0
0445,0445,PACIFIC & SPRING SW,,33.81138,-118.193869,,,0
0446,0446,PACIFIC & 29TH SW,,33.809627,-118.193862,,,0
0447,0447,PACIFIC & 28TH SW,,33.807775,-118.193772,,,0
0448,0448,PACIFIC & 27TH SW,,33.80599,-118.193861,,,0
0449,0449,PACIFIC & WILLOW NW,,33.804593,-118.193863,,,0
0450,0450,PACIFIC & 25TH SW,,33.802403,-118.193871,,,0
0451,0451,PACIFIC & BURNETT SW,,33.800584,-118.193867,,,0
0452,0452,PACIFIC & 23RD SW,,33.798628,-118.193856,,,0
0453,0453,PACIFIC & HILL SW,,33.796954,-118.193849,,,0
0454,0454,PACIFIC & 21ST SW,,33.795157,-118.193871,,,0
0455,0455,PACIFIC & 20TH SW,,33.793327,-118.193854,,,0
0456,0456,PACIFIC & 19TH SW,,33.791544,-118.193846,,,0
0457,0457,PACIFIC & PCH SW,,33.789494,-118.193832,,,0
0458,0458,PACIFIC & 16TH SW,,33.786917,-118.193836,,,0
0459,0459,PACIFIC & 15TH SW,,33.785122,-118.193851,,,0
0460,0460,PACIFIC & ANAHEIM SW,,33.782484,-118.193804,,,0
0461,0461,PACIFIC & 10TH SW,,33.778807,-118.19378,,,0
0462,0462,PACIFIC & 9TH SW,,33.777566,-118.19385,,,0
0463,0463,ANAHEIM & L.B. BLVD. SE,,33.782554,-118.18831,,,0
0464,0464,ANAHEIM & LINDEN SE,,33.782559,-118.186451,,,0
0465,0465,ANAHEIM & ATLANTIC SE,,33.782562,-118.184733,,,0
0466,0466,ANAHEIM & OLIVE SE,,33.78256,-118.18266,,,0
0467,0467,ANAHEIM & M.L. KING SE,,33.78256,-118.180475,,,0
0468,0468,ANAHEIM & ALAMITOS SE,,33.78255,-118.177714,,,0
0469,0469,ANAHEIM & ORANGE SE,,33.782543,-118.176203,,,0
0470,0470,ANAHEIM & HOFFMAN SE,,33.782544,-118.173469,,,0
0471,0471,ANAHEIM & WALNUT SE,,33.782544,-118.171742,,,0
0472,0472,ANAHEIM & ROSE SE,,33.782543,-118.169646,,,0
0473,0473,ANAHEIM & CHERRY SE,,33.782568,-118.167438,,,0
0474,0474,ANAHEIM & DAWSON SE,,33.782525,-118.16527,,,0
0475,0475,ANAHEIM & JUNIPERO SE,,33.78254,-118.163081,,,0
0476,0476,ANAHEIM & MOLINO SE,,33.782543,-118.16082,,,0
0477,0477,ANAHEIM & TEMPLE SE,,33.782496,-118.15874,,,0
0478,0478,ANAHEIM & ORIZABA SE,,33.782537,-118.156519,,,0
0479,0479,ANAHEIM & OBISPO SE,,33.782524,-118.15435,,,0
0480,0480,ANAHEIM & REDONDO SE,,33.782536,-118.152011,,,0
0481,0481,ANAHEIM & LOMA SE,,33.782533,-118.14999,,,0
0482,0482,ANAHEIM & MIRA MAR SE,,33.782539,-118.147318,,,0
0483,0483,ANAHEIM & TERMINO SE,,33.782555,-118.14568,,,0
0484,0484,ANAHEIM & ROSWELL SE,,33.782536,-118.143518,,,0
0485,0485,ANAHEIM & XIMENO SE,,33.782552,-118.141168,,,0
0486,0486,ANAHEIM & QUINCY SW,,33.782526,-118.139677,,,0
0488,0488,ANAHEIM & ARGONNE S,,33.782525,-118.136005,,,0
0489,0489,ANAHEIM & PCH NW,,33.782637,-118.133265,,,0
0491,0491,ANAHEIM & PARK NW,,33.782666,-118.13741,,,0
0492,0492,ANAHEIM & LEE NW,,33.782655,-118.140194,,,0
0493,0493,ANAHEIM & XIMENO NW,,33.782683,-118.141886,,,0
0494,0494,ANAHEIM & ROSWELL NW,,33.782669,-118.144462,,,0
0495,0495,ANAHEIM & TERMINO NW,,33.782673,-118.146196,,,0
0496,0496,ANAHEIM & MIRA MAR NW,,33.782664,-118.14851,,,0
0497,0497,ANAHEIM & LOMA NW,,33.782689,-118.150863,,,0
0498,0498,ANAHEIM & REDONDO NW,,33.78267,-118.153247,,,0
0500,0500,ANAHEIM & ORIZABA NW,,33.782686,-118.157036,,,0
0501,0501,ANAHEIM & TEMPLE NW,,33.782673,-118.159251,,,0
0502,0502,ANAHEIM & MOLINO NW,,33.782681,-118.161403,,,0
0503,0503,ANAHEIM & JUNIPERO NW,,33.782661,-118.163775,,,0
0504,0504,ANAHEIM & DAWSON NW,,33.782708,-118.165763,,,0
0505,0505,ANAHEIM & CHERRY NW,,33.782721,-118.168191,,,0
0507,0507,ANAHEIM & WALNUT NW,,33.782706,-118.17243,,,0
0508,0508,ANAHEIM & GUNDRY NW,,33.78269,-118.174457,,,0
0509,0509,ANAHEIM & ORANGE NW,,33.782676,-118.176685,,,0
0510,0510,ANAHEIM & ALAMITOS NW,,33.782698,-118.178281,,,0
0511,0511,ANAHEIM & M.L. KING NW,,33.782708,-118.180966,,,0
0512,0512,ANAHEIM & OLIVE NW,,33.782716,-118.183055,,,0
0513,0513,ANAHEIM & ATLANTIC NW,,33.782706,-118.185481,,,0
0514,0514,ANAHEIM & LINDEN NW,,33.78272,-118.186981,,,0
0515,0515,ANAHEIM RD. & LOS ALTOS SE,,33.783363,-118.130853,,,0
0516,0516,ANAHEIM RD. & LA PASADA SE,,33.781495,-118.128612,,,0
0518,0518,BELLFLOWER & ANAHEIM RD NE,,33.779872,-118.122322,,,0
0520,0520,7TH & CHANNEL SE,,33.775156,-118.118211,,,0
0527,0527,ATHERTON & PALO VERDE SE,,33.788602,-118.10742,,,0
0528,0528,ATHERTON & IROQUOIS SE,,33.788598,-118.105686,,,0
0529,0529,ATHERTON & VUELTA GRANDE SE,,33.788595,-118.10253,,,0
0531,0531,BEACH DR. & DORMS S,,33.78197,-118.12011,,,0
0532,0532,BEACH DR & W. CAMPUS S,,33.781977,-118.115743,,,0
0537,0537,7TH & V.A. HOSPITAL NW,,33.775423,-118.119354,,,0
0538,0538,PCH & ANAHEIM NW,,33.78275,-118.132963,,,0
0540,0540,BELLFLOWER & ANAHEIM RD NW,,33.779528,-118.122542,,,0
0541,0541,BELLFLOWER & ANAHEIM RD SW,,33.779271,-118.12253,,,0
0542,0542,ANAHEIM RD. & LA PASADA NW,,33.781884,-118.128889,,,0
0543,0543,LOS ALTOS & ANAHEIM RD. SW,,33.783454,-118.131228,,,0
0544,0544,LOS ALTOS & PCH NE,,33.782963,-118.132392,,,0
0545,0545,W. CAMPUS & LIBRARY West Side,,33.77801,-118.115185,,,0
0546,0546,L.B. BLVD. & PCH NE,,33.790605,-118.189193,,,0
0547,0547,L.B. BLVD. & 20TH NE,,33.794306,-118.189204,,,0
0548,0548,L.B. BLVD. & HILL NE,,33.797721,-118.189194,,,0
0550,0550,L.B. BLVD. & BURNETT NE,,33.800978,-118.189225,,,0
0551,0551,L.B. BLVD. & 25TH NE,,33.802795,-118.189194,,,0
0552,0552,L.B. BLVD. & WILLOW NE,,33.80468,-118.189213,,,0
0553,0553,L.B. BLVD. & MEMORIAL HOSPITAL E,,33.807543,-118.189278,,,0
0554,0554,L.B. BLVD. & COLUMBIA NE,,33.809166,-118.189284,,,0
0555,0555,L.B. BLVD. & SPRING NE,,33.811977,-118.189293,,,0
0556,0556,L.B. BLVD. & 31ST NE,,33.813707,-118.189161,,,0
0557,0557,L.B. BLVD. & 32ND NE,,33.815456,-118.189159,,,0
0558,0558,L.B. BLVD. & WARDLOW NE,,33.819279,-118.189199,,,0
0559,0559,L.B. BLVD. & 36TH NE,,33.822458,-118.189299,,,0
0560,0560,L.B. BLVD. & BIXBY NE,,33.826959,-118.189286,,,0
0561,0561,L.B. BLVD. & ROOSEVELT NE,,33.829224,-118.189288,,,0
0562,0562,L.B. BLVD. & MARSHALL PL NE,,33.830853,-118.189281,,,0
0563,0563,L.B. BLVD. & CARSON SE,,33.833645,-118.189314,,,0
0564,0564,L.B. BLVD. & SAN ANTONIO NE,,33.835034,-118.189474,,,0
0565,0565,L.B. BLVD. & 44TH NE,,33.837371,-118.190286,,,0
0566,0566,L.B. BLVD. & 45TH SE,,33.839063,-118.190913,,,0
0567,0567,L.B. BLVD. & 46TH SE,,33.840733,-118.191509,,,0
0568,0568,L.B. BLVD. & 47TH SE,,33.842915,-118.192298,,,0
0570,0570,L.B. BLVD. & DEL AMO NE,,33.847132,-118.193876,,,0
0571,0571,L.B. BLVD. & 51ST SE,,33.848734,-118.194508,,,0
0572,0572,L.B. BLVD. & 52ND NE,,33.850716,-118.195175,,,0
0573,0573,L.B. BLVD. & 53RD NE,,33.852652,-118.195881,,,0
0575,0575,L.B. BLVD. & MARKET NE,,33.854495,-118.19659,,,0
0577,0577,L.B. BLVD. & ELLIS NE,,33.857013,-118.197486,,,0
0582,0582,ARTESIA & SUZANA SE,,33.874185,-118.206786,,,0
0584,0584,L.B. BLVD. & ARTESIA SW,,33.873864,-118.202737,,,0
0585,0585,L.B. BLVD. & BORT SW,,33.870358,-118.201693,,,0
0587,0587,L.B. BLVD. & HARCOURT SW,,33.867713,-118.200858,,,0
0588,0588,L.B. BLVD. & VICTORIA NW,,33.865397,-118.200206,,,0
0589,0589,L.B. BLVD. & ELLIS NW,,33.856985,-118.197663,,,0
0591,0591,L.B. BLVD. & MARKET SW,,33.853802,-118.196546,,,0
0592,0592,L.B. BLVD. & 53RD SW,,33.852308,-118.195983,,,0
0593,0593,L.B. BLVD. & 52ND NW,,33.850336,-118.19527,,,0
0594,0594,L.B. BLVD. & 51ST SW,,33.848617,-118.194647,,,0
0595,0595,L.B. BLVD. & DEL AMO SW,,33.846341,-118.193828,,,0
0597,0597,L.B. BLVD. & 47TH NW,,33.842918,-118.192567,,,0
0598,0598,L.B. BLVD. & 46TH NW,,33.840994,-118.191856,,,0
0599,0599,L.B. BLVD. & 45TH SW,,33.839022,-118.191119,,,0
0600,0600,L.B. BLVD. & 44TH NW,,33.837221,-118.190471,,,0
0601,0601,L.B. BLVD. & SAN ANTONIO SW,,33.834146,-118.189433,,,0
0602,0602,L.B. BLVD. & MARSHALL SW,,33.8306,-118.189482,,,0
0603,0603,L.B. BLVD. & ROOSEVELT SW,,33.828788,-118.189449,,,0
0604,0604,L.B. BLVD. & BIXBY SW,,33.826344,-118.189475,,,0
0605,0605,L.B. BLVD. & CAMERON SW,,33.822972,-118.189399,,,0
0606,0606,L.B. BLVD. & WARDLOW SW,,33.818567,-118.189484,,,0
0607,0607,L.B. BLVD. & 31ST SW,,33.813052,-118.189508,,,0
0608,0608,L.B. BLVD. & SPRING SW,,33.811288,-118.189557,,,0
0609,0609,L.B. BLVD. & COLUMBIA SW,,33.80876,-118.189541,,,0
0610,0610,L.B. BLVD. & MEMORIAL HOSPITAL W,,33.807002,-118.189481,,,0
0611,0611,L.B. BLVD. & WILLOW SW,,33.804182,-118.189547,,,0
0612,0612,L.B. BLVD. & 25TH SW,,33.802281,-118.189523,,,0
0613,0613,L.B. BLVD. & EAGLE NW,,33.800171,-118.189538,,,0
0615,0615,L.B. BLVD. & HILL SW,,33.796848,-118.18955,,,0
0616,0616,L.B. BLVD. & 20TH NW,,33.793598,-118.189539,,,0
0617,0617,7TH & L.B. BLVD. NW,,33.775404,-118.189893,,,0
0618,0618,ELM & 1ST NE,,33.768239,-118.187604,,,0
0621,0621,4TH & LINDEN SE,,33.771698,-118.186095,,,0
0622,0622,4TH & ATLANTIC SE,,33.771648,-118.184746,,,0
0624,0624,4TH & ALAMITOS SE,,33.771672,-118.181084,,,0
0625,0625,4TH & BONITO SE,,33.771694,-118.179636,,,0
0626,0626,GARFIELD & RICHFIELD (LAYOVER) E,,33.901931,-118.16878,,,0
0627,0627,4TH & ORANGE SE,,33.771647,-118.176247,,,0
0629,0629,4TH & WALNUT SE,,33.77165,-118.171894,,,0
0631,0631,4TH & CHERRY SE,,33.771703,-118.167422,,,0
0632,0632,4TH & JUNIPERO SE,,33.77171,-118.164188,,,0
0633,0633,4TH & WISCONSIN SE,,33.77167,-118.161562,,,0
0634,0634,4TH & TEMPLE SE,,33.771638,-118.158822,,,0
0635,0635,4TH & ORIZABA SE,,33.771704,-118.156561,,,0
0637,0637,4TH & REDONDO SE,,33.771663,-118.152277,,,0
0639,0639,4TH & GRAND SE,,33.771641,-118.14797,,,0
0640,0640,4TH & TERMINO SE,,33.771687,-118.145671,,,0
0642,0642,4TH & XIMENO SE,,33.771668,-118.141298,,,0
0644,0644,4TH & PARK SW,,33.771637,-118.137363,,,0
0645,0645,ROSECRANS & SPANE PARK SE,,33.903547,-118.176732,,,0
0647,0647,ROSECRANS & GARFIELD SE,,33.903544,-118.168615,,,0
0648,0648,2ND & PARK SE,,33.761458,-118.137826,,,0
0649,0649,Garfield at Richfield SW,,33.901675,-118.168923,,,0
0650,0650,2ND & NIETO SE,,33.760288,-118.135212,,,0
0652,0652,2ND & GLENDORA SE,,33.759159,-118.132526,,,0
0653,0653,2ND & SANTA ANA SE,,33.758652,-118.131311,,,0
0655,0655,2ND & VENETIA SE,,33.757519,-118.126829,,,0
0657,0657,2ND & RAVENNA SE,,33.756767,-118.122932,,,0
0658,0658,2ND & E. CAMPO SW,,33.756413,-118.12103,,,0
0665,0665,MAIN & PCH SW,,33.744146,-118.102837,,,0
0666,0666,ELECTRIC & MAIN NW,,33.742939,-118.104191,,,0
0668,0668,COLORADO AT APPIAN WAY NE,,33.769963,-118.134236,,,0
0669,0669,ELECTRIC & 7TH NW,,33.744429,-118.105382,,,0
0675,0675,2ND & MARINA NW,,33.757505,-118.113798,,,0
0676,0676,ROSECRANS & MOBILE HOME PARK NW,,33.90374,-118.175661,,,0
0677,0677,2ND & RAVENNA NW,,33.757088,-118.123601,,,0
0678,0678,ROSECRANS & GARFIELD NW,,33.903752,-118.169426,,,0
0679,0679,2ND & VENETIA NW,,33.757736,-118.126921,,,0
0680,0680,2ND & SANTA ANA NW,,33.758925,-118.131561,,,0
0681,0681,2ND & GLENDORA NW,,33.759491,-118.132852,,,0
0682,0682,GARFIELD & ROSECRANS SW,,33.903214,-118.168924,,,0
0683,0683,2ND & NIETO NW,,33.760574,-118.135397,,,0
0685,0685,2ND & PARK NW,,33.761758,-118.138087,,,0
0688,0688,4TH & PARK NW,,33.771755,-118.137448,,,0
0690,0690,4TH & XIMENO NW,,33.771761,-118.141903,,,0
0692,0692,4TH & TERMINO NW,,33.771755,-118.146237,,,0
0693,0693,4TH & GRAND NW,,33.771767,-118.148319,,,0
0695,0695,4TH & REDONDO NW,,33.771778,-118.152702,,,0
0697,0697,4TH & ORIZABA NW,,33.771772,-118.157052,,,0
0698,0698,4TH & TEMPLE NW,,33.771778,-118.159181,,,0
0699,0699,4TH & MOLINO NW,,33.771786,-118.161411,,,0
0700,0700,4TH & JUNIPERO NW,,33.771759,-118.164711,,,0
0701,0701,4TH & CHERRY NW,,33.771776,-118.168038,,,0
0703,0703,4TH & WALNUT NW,,33.77179,-118.172256,,,0
0705,0705,4TH & BONITO NW,,33.771737,-118.179866,,,0
0706,0706,4TH & ALAMITOS NW,,33.771809,-118.181729,,,0
0708,0708,4TH & ATLANTIC NW,,33.771779,-118.185328,,,0
0709,0709,4TH & LINDEN NW,,33.771768,-118.186657,,,0
0711,0711,6TH & L.B. BLVD. SE,,33.774114,-118.18891,,,0
0712,0712,SIXTH & ELM SE,,33.774147,-118.18742,,,0
0713,0713,Atlantic & 6th NE,,33.774392,-118.184972,,,0
0714,0714,Atlantic & 7th NE,,33.77574,-118.184977,,,0
0715,0715,ATLANTIC & 8TH NE,,33.776805,-118.184973,,,0
0717,0717,ATLANTIC & 10TH NE,,33.779268,-118.184979,,,0
0718,0718,ATLANTIC & 11TH NE,,33.781111,-118.184984,,,0
0719,0719,ATLANTIC & ANAHEIM NE,,33.782765,-118.184981,,,0
0720,0720,ATLANTIC & NEW YORK NE,,33.784969,-118.184962,,,0
0721,0721,ATLANTIC & 16TH NE,,33.787131,-118.18498,,,0
0722,0722,ATLANTIC & PCH NE,,33.79,-118.184967,,,0
0724,0724,ATLANTIC & 20TH NE,,33.793737,-118.184962,,,0
0726,0726,ATLANTIC & HILL NE,,33.797369,-118.184983,,,0
0728,0728,ATLANTIC & BURNETT NE,,33.80095,-118.184978,,,0
0730,0730,ATLANTIC & WILLOW NE,,33.804761,-118.18493,,,0
0731,0731,ATLANTIC & PATTERSON NE,,33.807204,-118.184929,,,0
0732,0732,ATLANTIC & COLUMBIA NE,,33.80902,-118.184906,,,0
0733,0733,ATLANTIC & 31ST NE,,33.813557,-118.184906,,,0
0734,0734,ATLANTIC & 33RD NE,,33.817184,-118.184945,,,0
0735,0735,ATLANTIC & WARDLOW NE,,33.819143,-118.184931,,,0
0736,0736,ATLANTIC & 36TH NE,,33.822377,-118.184957,,,0
0737,0737,ATLANTIC & 37TH NE,,33.824512,-118.184946,,,0
0738,0738,ATLANTIC & BIXBY SE,,33.827398,-118.184881,,,0
0739,0739,ATLANTIC & ROOSEVELT NE,,33.829375,-118.184875,,,0
0740,0740,ATLANTIC & CARSON NE,,33.83216,-118.18489,,,0
0742,0742,ATLANTIC & SAN ANTONIO NE,,33.837727,-118.184885,,,0
0743,0743,ATLANTIC & 45TH NE,,33.840159,-118.184835,,,0
0744,0744,ATLANTIC & 46TH NE,,33.842993,-118.184824,,,0
0745,0745,ATLANTIC & DEL AMO NE,,33.845623,-118.184807,,,0
0746,0746,ATLANTIC & 51ST NE,,33.848683,-118.184777,,,0
0747,0747,ATLANTIC & 52ND  NE,,33.850698,-118.184771,,,0
0748,0748,ATLANTIC & 53RD SE,,33.852356,-118.1848,,,0
0749,0749,ATLANTIC & MARKET NE,,33.854474,-118.184815,,,0
0751,0751,ATLANTIC & 56TH NE,,33.858228,-118.184836,,,0
0752,0752,ATLANTIC & SOUTH NE,,33.860174,-118.184878,,,0
0753,0753,ATLANTIC & 60TH NE,,33.86379,-118.184906,,,0
0754,0754,ATLANTIC & HARDING NE,,33.867433,-118.185167,,,0
0755,0755,ATLANTIC & ADAMS NE,,33.87014,-118.185541,,,0
0756,0756,ATLANTIC & JORDAN HS. E,,33.871322,-118.185705,,,0
0759,0759,ELM & 4TH SW,,33.771588,-118.187769,,,0
0768,0768,ATLANTIC & ARTESIA SW,,33.874232,-118.186243,,,0
0769,0769,ATLANTIC & JORDAN HS. W,,33.871031,-118.185857,,,0
0770,0770,ATLANTIC & ADAMS SW,,33.869665,-118.185717,,,0
0771,0771,ATLANTIC & HARDING SW,,33.867136,-118.185351,,,0
0772,0772,ATLANTIC & 60TH NW,,33.863792,-118.185107,,,0
0773,0773,ATLANTIC & SOUTH SW,,33.859822,-118.185095,,,0
0774,0774,ATLANTIC & 56TH SW,,33.857862,-118.185084,,,0
0775,0775,ATLANTIC & SOUTH NW,,33.860192,-118.185103,,,0
0776,0776,ATLANTIC & MARKET NW,,33.854617,-118.185063,,,0
0777,0777,ATLANTIC & 53RD SW,,33.852232,-118.185048,,,0
0778,0778,ATLANTIC & 52ND SW,,33.850424,-118.185034,,,0
0779,0779,ATLANTIC & 51ST SW,,33.848503,-118.18506,,,0
0780,0780,ATLANTIC & DEL AMO SW,,33.84492,-118.185124,,,0
0781,0781,ATLANTIC & 46TH SW,,33.842443,-118.185104,,,0
0782,0782,ATLANTIC & 45TH SW,,33.839667,-118.185139,,,0
0783,0783,ATLANTIC & SAN ANTONIO SW,,33.836258,-118.185127,,,0
0784,0784,ATLANTIC & BURLINGHALL SW,,33.834099,-118.185176,,,0
0785,0785,ATLANTIC & CARSON SW,,33.831452,-118.185133,,,0
0786,0786,ATLANTIC & ROOSEVELT SW,,33.828724,-118.185138,,,0
0787,0787,ATLANTIC & BIXBY SW,,33.826512,-118.18513,,,0
0788,0788,ATLANTIC & 37TH SW,,33.823984,-118.185079,,,0
0789,0789,ATLANTIC & 36TH SW,,33.82197,-118.185088,,,0
0790,0790,ATLANTIC & WARDLOW SW,,33.818607,-118.185099,,,0
0791,0791,ATLANTIC & 31ST NW,,33.813675,-118.1852,,,0
0792,0792,ATLANTIC & COLUMBIA SW,,33.808682,-118.185189,,,0
0794,0794,ATLANTIC & WILLOW SW,,33.804076,-118.185091,,,0
0796,0796,ATLANTIC & BURNETT SW,,33.800551,-118.185079,,,0
0798,0798,ATLANTIC & HILL SW,,33.796844,-118.185088,,,0
0800,0800,ATLANTIC & 20TH SW,,33.793258,-118.185088,,,0
0802,0802,ATLANTIC & PCH SW,,33.789609,-118.185101,,,0
0803,0803,ATLANTIC & 16TH SW,,33.78676,-118.185144,,,0
0804,0804,ATLANTIC & NEW YORK SW,,33.784606,-118.185182,,,0
0805,0805,ATLANTIC & 10TH SW,,33.778631,-118.185101,,,0
0807,0807,Atlantic & 8th SW,,33.776285,-118.185151,,,0
0808,0808,7TH & ATLANTIC NW,,33.775405,-118.18555,,,0
0810,0810,NEW YORK & ATLANTIC SE,,33.78482,-118.184781,,,0
0811,0811,NEW YORK & M.L. KING SE,,33.784821,-118.180612,,,0
0812,0812,NEW YORK & CERRITOS SW,,33.784807,-118.178102,,,0
0813,0813,ALAMITOS & 15TH NE,,33.786439,-118.176707,,,0
0814,0814,ORANGE & PCH NE,,33.790107,-118.176225,,,0
0815,0815,ORANGE & 19TH NE,,33.791429,-118.176233,,,0
0816,0816,ORANGE & 20TH SE,,33.793401,-118.176273,,,0
0817,0817,ORANGE & HILL NE,,33.797443,-118.176281,,,0
0818,0818,ORANGE & 23RD SE,,33.798776,-118.176278,,,0
0819,0819,ORANGE & BURNETT SE,,33.800666,-118.176278,,,0
0820,0820,ORANGE & WILLOW SE,,33.803623,-118.176281,,,0
0822,0822,ORANGE & 29TH SE,,33.809673,-118.176251,,,0
0823,0823,ORANGE & SPRING NE,,33.812091,-118.176259,,,0
0824,0824,ORANGE & 32ND NE,,33.815531,-118.176281,,,0
0825,0825,ORANGE & 33RD NE,,33.817303,-118.176265,,,0
0826,0826,ORANGE & WARDLOW NE,,33.819134,-118.176273,,,0
0827,0827,ORANGE & 36TH NE,,33.822354,-118.176268,,,0
0828,0828,ORANGE & 37TH NE,,33.824446,-118.176302,,,0
0829,0829,ORANGE & BIXBY NE,,33.826982,-118.176284,,,0
0830,0830,ORANGE & ROOSEVELT NE,,33.830175,-118.176245,,,0
0831,0831,ORANGE & CARSON NE,,33.832785,-118.17626,,,0
0832,0832,ORANGE & TEHACHAPI NE,,33.836096,-118.176254,,,0
0833,0833,ORANGE & GOLDFIELD NE,,33.839281,-118.176247,,,0
0834,0834,ORANGE & SAN ANTONIO NE,,33.841938,-118.176273,,,0
0835,0835,ORANGE & E. GOLDFIELD NE,,33.844202,-118.176531,,,0
0836,0836,ORANGE & DEL AMO NE,,33.847287,-118.176827,,,0
0837,0837,ORANGE & 52ND NE,,33.850389,-118.177127,,,0
0839,0839,ORANGE & MARKET NE,,33.854676,-118.177215,,,0
0841,0841,ORANGE & 56TH NE,,33.857827,-118.177218,,,0
0842,0842,ORANGE & SOUTH NE,,33.860435,-118.177227,,,0
0843,0843,ORANGE & HUNGERFORD NE,,33.863037,-118.177276,,,0
0844,0844,ORANGE & 61ST NE,,33.865744,-118.177265,,,0
0845,0845,ORANGE & HARDING NE,,33.867582,-118.177278,,,0
0847,0847,ORANGE & 64TH NE,,33.871188,-118.1773,,,0
0848,0848,ORANGE & 65TH NE,,33.873053,-118.177311,,,0
0849,0849,ORANGE & ARTESIA NE,,33.874919,-118.177321,,,0
0851,0851,ORANGE & 68TH NE,,33.878441,-118.177349,,,0
0852,0852,ORANGE & 70TH SE,,33.881568,-118.177365,,,0
0853,0853,ORANGE & JACKSON NE,,33.885811,-118.177381,,,0
0854,0854,ORANGE & ALONDRA NE,,33.889722,-118.177358,,,0
0855,0855,ORANGE & MYRRH NE,,33.892953,-118.177438,,,0
0856,0856,ORANGE & SOMERSET BLVD NE,,33.896687,-118.177451,,,0
0857,0857,ORANGE & SAN VICENTE NE,,33.899861,-118.177485,,,0
0858,0858,ORANGE & SAN CARLOS NE,,33.902216,-118.177496,,,0
0861,0861,ORANGE & SAN CARLOS NW,,33.901946,-118.177654,,,0
0862,0862,ORANGE & SAN VICENTE NW,,33.899443,-118.177639,,,0
0863,0863,ORANGE & SOMERSET BLVD SW,,33.895983,-118.177625,,,0
0864,0864,ORANGE & MYRRH W,,33.892568,-118.177621,,,0
0865,0865,ORANGE & ALONDRA NW,,33.889427,-118.177596,,,0
0866,0866,ORANGE & 72ND SW,,33.885225,-118.17749,,,0
0867,0867,ORANGE & 70TH SW,,33.881598,-118.177536,,,0
0868,0868,ORANGE & 68TH SW,,33.878071,-118.177457,,,0
0870,0870,ORANGE & ARTESIA SW,,33.874372,-118.17751,,,0
0871,0871,ORANGE & 65TH SW,,33.872634,-118.177449,,,0
0872,0872,ORANGE & 64TH SW,,33.870849,-118.17741,,,0
0874,0874,ORANGE & HARDING SW,,33.867063,-118.177386,,,0
0875,0875,ORANGE & 61ST SW,,33.865365,-118.177375,,,0
0876,0876,ORANGE & 60TH SW,,33.863504,-118.177379,,,0
0877,0877,ORANGE & SOUTH SW,,33.859861,-118.177394,,,0
0878,0878,ORANGE & 56TH SW,,33.85772,-118.177343,,,0
0880,0880,ORANGE & MARKET SW,,33.854121,-118.177304,,,0
0881,0881,ORANGE & VIA WANDA SW,,33.84979,-118.177267,,,0
0882,0882,ORANGE & DEL AMO SW,,33.846709,-118.176882,,,0
0883,0883,ORANGE & 45TH WAY SW,,33.84374,-118.176668,,,0
0884,0884,ORANGE & SAN ANTONIO SW,,33.84099,-118.176361,,,0
0885,0885,ORANGE & CLAIRBORNE SW,,33.838816,-118.176437,,,0
0886,0886,ORANGE & TEHACHAPI SW,,33.835601,-118.17645,,,0
0887,0887,ORANGE & CARSON SW,,33.832112,-118.176436,,,0
0888,0888,ORANGE & ROOSEVELT SW,,33.829541,-118.176369,,,0
0889,0889,ORANGE & BIXBY NW,,33.827473,-118.176374,,,0
0890,0890,ORANGE & 37TH SW,,33.823992,-118.176433,,,0
0891,0891,ORANGE & 36TH SW,,33.822003,-118.176428,,,0
0892,0892,ORANGE & WARDLOW SW,,33.818699,-118.17644,,,0
0893,0893,ORANGE & 33RD SW,,33.816946,-118.176375,,,0
0894,0894,ORANGE & 32ND SW,,33.815023,-118.17645,,,0
0895,0895,ORANGE & SPRING NW,,33.812003,-118.17646,,,0
0896,0896,ORANGE & 29TH SW,,33.809596,-118.176458,,,0
0898,0898,ORANGE & WILLOW SW,,33.803982,-118.176423,,,0
0899,0899,ORANGE & BURNETT NW,,33.801199,-118.176444,,,0
0900,0900,ORANGE & 23RD SW,,33.798654,-118.176442,,,0
0901,0901,ORANGE & HILL NW,,33.797625,-118.176392,,,0
0902,0902,ORANGE & 20TH SW,,33.79323,-118.176444,,,0
0903,0903,ORANGE & 19TH SW,,33.791052,-118.176341,,,0
0904,0904,ORANGE & PCH SW,,33.789534,-118.176442,,,0
0905,0905,ALAMITOS & 16TH SW,,33.786946,-118.176763,,,0
0999,0999,6TH & ATLANTIC SE,,33.774074,-118.184833,,,0
1000,1000,6TH & OLIVE SE,,33.774114,-118.182076,,,0
1001,1001,7th & Alamitos SE,,33.775285,-118.179815,,,0
1003,1003,7TH & ORANGE SE,,33.775288,-118.1761,,,0
1004,1004,7TH & NEBRASKA SE,,33.775272,-118.173477,,,0
1005,1005,7TH & WALNUT SE,,33.775277,-118.171776,,,0
1006,1006,7TH & ROSE SE,,33.775289,-118.169638,,,0
1007,1007,7TH & CHERRY SE,,33.775267,-118.167242,,,0
1008,1008,7TH & DAWSON SE,,33.775273,-118.165241,,,0
1009,1009,7TH & JUNIPERO SE,,33.77529,-118.163057,,,0
1010,1010,7TH & MOLINO SE,,33.77527,-118.160908,,,0
1011,1011,7TH & TEMPLE SE,,33.775287,-118.158657,,,0
1012,1012,7TH & ORIZABA SE,,33.77529,-118.156558,,,0
1013,1013,7TH & OBISPO SE,,33.775315,-118.154298,,,0
1014,1014,7TH & REDONDO SE,,33.775276,-118.152172,,,0
1017,1017,7TH & TERMINO SE,,33.77526,-118.145601,,,0
1019,1019,7th & Ximeno SE,,33.775254,-118.141363,,,0
1020,1020,7TH & PARK SE,,33.775306,-118.136866,,,0
1021,1021,7TH & FEDERATION SW,,33.775283,-118.13493,,,0
1022,1022,7TH & TERRAINE SE,,33.775247,-118.127264,,,0
1023,1023,7TH & LOS ALTOS SE,,33.775258,-118.125026,,,0
1024,1024,7TH & BELLFLOWER SW,,33.775207,-118.121469,,,0
1025,1025,W. CAMPUS & LIBRARY East Side,,33.777788,-118.115135,,,0
1026,1026,BEACH DR & W. CAMPUS N,,33.782069,-118.11485,,,0
1027,1027,BEACH DR. & DORMS N,,33.78213,-118.120288,,,0
1029,1029,BELLFLOWER & ATHERTON NE,,33.788987,-118.124527,,,0
1030,1030,BELLFLOWER & GARFORD NE,,33.792061,-118.125268,,,0
1031,1031,BELLFLOWER & BRITTON NE,,33.7941,-118.125222,,,0
1032,1032,BELLFLOWER & STEARNS NE,,33.796158,-118.125196,,,0
1033,1033,BELLFLOWER & 23RD NE,,33.799301,-118.125184,,,0
1034,1034,BELLFLOWER & 28TH NE,,33.80697,-118.125149,,,0
1035,1035,BELLFLOWER & SPRING NE,,33.810749,-118.125125,,,0
1036,1036,BELLFLOWER & MEZZANINE NE,,33.815392,-118.125119,,,0
1037,1037,BELLFLOWER & WARDLOW NE,,33.819132,-118.125075,,,0
1038,1038,BELLFLOWER & MONLACO NE,,33.822509,-118.125103,,,0
1039,1039,BELLFLOWER & CONANT NE,,33.824909,-118.125041,,,0
1040,1040,BELLFLOWER & HARCO NE,,33.827977,-118.125075,,,0
1041,1041,BELLFLOWER & PARKCREST NE,,33.830566,-118.125013,,,0
1042,1042,BELLFLOWER & CARSON NE,,33.832637,-118.124979,,,0
1043,1043,BELLFLOWER & HARVEY WAY NE,,33.83638,-118.124992,,,0
1044,1044,BELLFLOWER & CENTRALIA NE,,33.839718,-118.124991,,,0
1045,1045,BELLFLOWER & ARBOR WAY NE,,33.843291,-118.124963,,,0
1046,1046,BELLFLOWER & DEL AMO NE,,33.847514,-118.124933,,,0
1047,1047,BELLFLOWER & HARDWICK NE,,33.850794,-118.124933,,,0
1048,1048,BELLFLOWER & CANDLEWOOD NE,,33.853804,-118.124914,,,0
1049,1049,BELLFLOWER & MICHELSON NE,,33.856361,-118.124926,,,0
1050,1050,BELLFLOWER & SOUTH SE,,33.859951,-118.124904,,,0
1051,1051,BELLFLOWER & ANDY NE,,33.861978,-118.124996,,,0
1052,1052,BELLFLOWER & HEDDA NE,,33.864191,-118.124983,,,0
1053,1053,BELLFLOWER & ALLINGTON NE,,33.865354,-118.124999,,,0
1054,1054,BELLFLOWER & ASHWORTH SE,,33.867739,-118.125018,,,0
1055,1055,BELLFLOWER & CEDAR NE,,33.871484,-118.125101,,,0
1056,1056,BELLFLOWER & RAMONA SE,,33.872715,-118.125112,,,0
1057,1057,BELLFLOWER & ARTESIA SE,,33.874454,-118.125075,,,0
1059,1059,BELLFLOWER & PARK NE,,33.878766,-118.12515,,,0
1060,1060,BELLFLOWER & WALNUT SE,,33.880123,-118.125189,,,0
1061,1061,BELLFLOWER & FLOWER NE,,33.88235,-118.12518,,,0
1062,1062,BELLFLOWER & FLORA VISTA NE,,33.886171,-118.125205,,,0
1065,1065,BELLFLOWER & FLORA VISTA SW,,33.886231,-118.125353,,,0
1066,1066,BELLFLOWER & OAK SW,,33.884453,-118.125403,,,0
1067,1067,BELLFLOWER & FLOWER SW,,33.881906,-118.125321,,,0
1068,1068,BELLFLOWER & WALNUT SW,,33.880144,-118.125357,,,0
1069,1069,BELLFLOWER & PARK SW,,33.878191,-118.125348,,,0
1071,1071,BELLFLOWER & ARTESIA SW,,33.874389,-118.125268,,,0
1072,1072,BELLFLOWER & RAMONA NW,,33.873179,-118.125255,,,0
1073,1073,BELLFLOWER & ASHWORTH NW,,33.868128,-118.125323,,,0
1074,1074,BELLFLOWER & ALLINGTON SW,,33.865559,-118.125273,,,0
1075,1075,BELLFLOWER & HEDDA SW,,33.864047,-118.125266,,,0
1076,1076,BELLFLOWER & ANDY NW,,33.862251,-118.125265,,,0
1077,1077,BELLFLOWER & SOUTH SW,,33.859772,-118.125274,,,0
1078,1078,BELLFLOWER & MICHELSON SW,,33.856013,-118.1252,,,0
1079,1079,BELLFLOWER & CANDLEWOOD SW,,33.853474,-118.125195,,,0
1080,1080,BELLFLOWER & HARDWICK SW,,33.850623,-118.125206,,,0
1081,1081,BELLFLOWER & DEL AMO SW,,33.846657,-118.125238,,,0
1082,1082,BELLFLOWER & ARBOR SW,,33.842774,-118.125265,,,0
1083,1083,BELLFLOWER & CENTRALIA SW,,33.839361,-118.125267,,,0
1084,1084,BELLFLOWER & HARVEY WAY SW,,33.835869,-118.125301,,,0
1085,1085,BELLFLOWER & CARSON SW,,33.831854,-118.125321,,,0
1086,1086,BELLFLOWER & PARKCREST NW,,33.830513,-118.125342,,,0
1087,1087,BELLFLOWER & HARCO SW,,33.827417,-118.125325,,,0
1088,1088,BELLFLOWER & CONANT SW,,33.824919,-118.125331,,,0
1089,1089,BELLFLOWER & MONLACO SW,,33.822075,-118.12533,,,0
1090,1090,BELLFLOWER & WARDLOW SW,,33.818156,-118.125346,,,0
1091,1091,BELLFLOWER & KILLDEE SW,,33.816084,-118.125352,,,0
1092,1092,BELLFLOWER & MEZZANINE SW,,33.815126,-118.125354,,,0
1093,1093,BELLFLOWER & PAGENTRY SW,,33.813053,-118.125363,,,0
1094,1094,BELLFLOWER & SPRING SW,,33.810181,-118.125395,,,0
1095,1095,BELLFLOWER & 28TH NW,,33.806668,-118.125396,,,0
1096,1096,BELLFLOWER & LOS COYOTES SW,,33.802021,-118.125418,,,0
1097,1097,BELLFLOWER & 23RD SW,,33.79893,-118.12543,,,0
1098,1098,BELLFLOWER & STEARNS SW,,33.795786,-118.125498,,,0
1099,1099,BELLFLOWER & ABBEYFIELD SW,,33.793679,-118.125518,,,0
1101,1101,BELLFLOWER & ATHERTON SW,,33.788324,-118.124447,,,0
1103,1103,7TH & PCH NW,,33.775408,-118.123348,,,0
1104,1104,7TH & LOS ALTOS NW,,33.775409,-118.125546,,,0
1106,1106,7TH & FEDERATION NW,,33.775399,-118.134376,,,0
1107,1107,7TH & PARK NW,,33.775428,-118.137987,,,0
1108,1108,7th & Ximeno NW,,33.775371,-118.142008,,,0
1110,1110,7TH & TERMINO NW,,33.775391,-118.146213,,,0
1113,1113,7TH & REDONDO NW,,33.775418,-118.152814,,,0
1114,1114,7TH & OBISPO NW,,33.775419,-118.154831,,,0
1115,1115,7TH & ORIZABA NW,,33.775435,-118.156999,,,0
1116,1116,7TH & TEMPLE NW,,33.775435,-118.159388,,,0
1117,1117,7TH & MOLINO NW,,33.775429,-118.161412,,,0
1118,1118,7TH & JUNIPERO NW,,33.775429,-118.163577,,,0
1119,1119,7TH & DAWSON NW,,33.775421,-118.165729,,,0
1120,1120,7TH & CHERRY NW,,33.775417,-118.16792,,,0
1121,1121,7TH & ROSE NW,,33.775412,-118.170112,,,0
1122,1122,7TH & WALNUT NW,,33.775441,-118.172369,,,0
1123,1123,7TH & NEBRASKA NW,,33.775414,-118.174063,,,0
1124,1124,7TH & ORANGE NW,,33.775435,-118.176725,,,0
1125,1125,7th & Alamitos NE,,33.77538,-118.179944,,,0
1126,1126,7TH & OLIVE NW,,33.775371,-118.182641,,,0
1127,1127,7TH & ELM NW,,33.775402,-118.188011,,,0
1128,1128,DEL AMO & BELLFLOWER NW,,33.84717,-118.125578,,,0
1129,1129,DEL AMO & PEARCE NW,,33.8472,-118.129955,,,0
1130,1130,CLARK & DEL AMO NE,,33.847769,-118.13373,,,0
1131,1131,CLARK & HARDWICK NE,,33.851136,-118.133717,,,0
1134,1134,Clark & Candlewood NW,,33.854261,-118.133914,,,0
1135,1135,CLARK & CANDLEWOOD NE,,33.85405,-118.13372,,,0
1136,1136,Candlewood & Graywood NW,,33.85389,-118.13837,,,0
1137,1137,CLARK & MICHELSON NE,,33.857504,-118.133717,,,0
1138,1138,CLARK & SOUTH SE,,33.860092,-118.133733,,,0
1139,1139,CLARK & HEDDA SE,,33.863964,-118.133802,,,0
1140,1140,CLARK & ASHWORTH SE,,33.867756,-118.133811,,,0
1141,1141,CLARK & ROSE SE,,33.869463,-118.133807,,,0
1142,1142,CLARK & CEDAR NE,,33.871394,-118.133853,,,0
1143,1143,CLARK & RAMONA SE,,33.872785,-118.133829,,,0
1144,1144,CLARK & ARTESIA SE,,33.874486,-118.133868,,,0
1145,1145,CLARK & PARK SE,,33.878289,-118.133884,,,0
1146,1146,CLARK & WALNUT SE,,33.880127,-118.133903,,,0
1147,1147,FLOWER & CLARK SE,,33.882012,-118.133669,,,0
1148,1148,FLOWER & ARDMORE SE,,33.882026,-118.128839,,,0
1149,1149,FLOWER & BELLFLOWER NW,,33.88212,-118.125976,,,0
1150,1150,FLOWER & ARDMORE NE,,33.88216,-118.128915,,,0
1151,1151,CLARK & FLOWER SW,,33.881877,-118.134061,,,0
1152,1152,CLARK & WALNUT NW,,33.880407,-118.134062,,,0
1153,1153,CLARK & PARK NW,,33.878577,-118.134052,,,0
1154,1154,CLARK & ARTESIA SW,,33.874447,-118.134032,,,0
1156,1156,CLARK & CEDAR NW,,33.87143,-118.133995,,,0
1157,1157,CLARK & ROSE SW,,33.869432,-118.133981,,,0
1158,1158,CLARK & ASHWORTH NW,,33.868089,-118.133976,,,0
1159,1159,CLARK & HEDDA NW,,33.864374,-118.13397,,,0
1160,1160,CLARK & SOUTH SW,,33.859979,-118.133888,,,0
1163,1163,CLARK & CANDLEWOOD SW,,33.853306,-118.133877,,,0
1164,1164,CLARK & HARDWICK SW,,33.849942,-118.133885,,,0
1165,1165,DEL AMO & CLARK SE,,33.847019,-118.13335,,,0
1166,1166,DEL AMO & PEARCE SE,,33.846985,-118.129791,,,0
1167,1167,WILLOW & LOS COYOTES SE,,33.80316,-118.121408,,,0
1168,1168,WILLOW & SAN VICENTE SE,,33.803125,-118.117011,,,0
1169,1169,WOODRUFF & WILLOW NE,,33.803461,-118.114456,,,0
1170,1170,WOODRUFF & OAKBROOK NE,,33.806193,-118.114441,,,0
1171,1171,WOODRUFF & SPRING NE,,33.811053,-118.11446,,,0
1172,1172,WOODRUFF & LOS COYOTES NE,,33.813223,-118.115377,,,0
1173,1173,WOODRUFF & FANWOOD NE,,33.815461,-118.116408,,,0
1174,1174,WOODRUFF & WARDLOW NE,,33.818964,-118.116407,,,0
1175,1175,WOODRUFF & MONLACO NE,,33.822461,-118.116383,,,0
1176,1176,WOODRUFF & CONANT NE,,33.825156,-118.116471,,,0
1177,1177,WOODRUFF & HARCO NE,,33.827527,-118.116511,,,0
1178,1178,WOODRUFF & MORTUARY E,,33.829934,-118.116498,,,0
1179,1179,WOODRUFF & CARSON NE,,33.832678,-118.116433,,,0
1180,1180,WOODRUFF & HARVEY WAY NE,,33.836376,-118.116347,,,0
1181,1181,WOODRUFF & CENTRALIA NE,,33.839608,-118.116298,,,0
1182,1182,WOODRUFF & ARBOR RD NE,,33.843867,-118.116295,,,0
1183,1183,WOODRUFF & DEL AMO NE,,33.847207,-118.116308,,,0
1184,1184,WOODRUFF & HARDWICK NE,,33.851403,-118.116646,,,0
1185,1185,WOODRUFF & CANDLEWOOD NE,,33.853816,-118.116859,,,0
1186,1186,WOODRUFF & PAVILIONS SE,,33.856634,-118.116966,,,0
1187,1187,WOODRUFF & SOUTH SE,,33.857961,-118.116981,,,0
1188,1188,WOODRUFF & ARABELLA SE,,33.862874,-118.11708,,,0
1189,1189,WOODRUFF & ASHWORTH NE,,33.868175,-118.117131,,,0
1190,1190,WOODRUFF & ROSE NE,,33.870118,-118.117153,,,0
1191,1191,WOODRUFF & ARTESIA NE,,33.873258,-118.1172,,,0
1192,1192,WOODRUFF & BEACH NE,,33.877743,-118.117249,,,0
1193,1193,WOODRUFF & WALNUT NE,,33.88054,-118.11727,,,0
1194,1194,WOODRUFF & MIDWAY SE,,33.883587,-118.117307,,,0
1195,1195,WOODRUFF & TRABUCO SE,,33.887215,-118.117302,,,0
1196,1196,ALONDRA & WOODRUFF SE,,33.889335,-118.117088,,,0
1198,1198,WOODRUFF & WALNUT SW,,33.8801,-118.117457,,,0
1199,1199,WOODRUFF & FLORA VISTA NW,,33.882799,-118.117454,,,0
1200,1200,WOODRUFF & BEACH SW,,33.877372,-118.117427,,,0
1201,1201,WOODRUFF & ARTESIA SW,,33.872437,-118.117316,,,0
1202,1202,WOODRUFF & ROSE NW,,33.869873,-118.117383,,,0
1203,1203,WOODRUFF & ASHWORTH SW,,33.867681,-118.117259,,,0
1204,1204,WOODRUFF & ALLINGTON SW,,33.86518,-118.117227,,,0
1205,1205,WOODRUFF & ARABELLA SW,,33.861509,-118.117263,,,0
1206,1206,WOODRUFF & SOUTH SW,,33.857547,-118.117149,,,0
1207,1207,WOODRUFF & PAVILIONS SW,,33.856189,-118.117088,,,0
1208,1208,WOODRUFF & CANDLEWOOD SW,,33.852978,-118.117005,,,0
1209,1209,WOODRUFF & HARDWICK SW,,33.850095,-118.116774,,,0
1210,1210,WOODRUFF & DEL AMO SW,,33.846572,-118.116534,,,0
1211,1211,WOODRUFF & ARBOR RD NW,,33.843113,-118.116539,,,0
1212,1212,WOODRUFF & CENTRALIA SW,,33.839422,-118.116573,,,0
1213,1213,WOODRUFF & HARVEY WAY SW,,33.835601,-118.116566,,,0
1214,1214,WOODRUFF & CARSON SW,,33.831948,-118.116678,,,0
1215,1215,WOODRUFF & HARCO SW,,33.827527,-118.116656,,,0
1216,1216,WOODRUFF & CONANT SW,,33.824875,-118.116699,,,0
1217,1217,WOODRUFF & MONLACO SW,,33.822278,-118.116641,,,0
1218,1218,WOODRUFF & WARDLOW SW,,33.818121,-118.116663,,,0
1219,1219,WOODRUFF & MEZZANINE SW,,33.814739,-118.116519,,,0
1220,1220,WOODRUFF & LOS COYOTES NW,,33.813198,-118.115662,,,0
1221,1221,WOODRUFF & SPRING NW,,33.810852,-118.114713,,,0
1222,1222,WOODRUFF & OAKBRIDGE SW,,33.805728,-118.114756,,,0
1223,1223,WOODRUFF & WILLOW SW,,33.803565,-118.114779,,,0
1224,1224,WILLOW & SAN VICENTE NW,,33.803372,-118.117195,,,0
1225,1225,WILLOW & RADNOR NW,,33.803395,-118.122461,,,0
1230,1230,WILLOW & EASY SE,,33.8043,-118.209705,,,0
1231,1231,WILLOW & OREGON SE,,33.80432,-118.201058,,,0
1233,1233,WILLOW & MAGNOLIA SE,,33.804306,-118.197911,,,0
1235,1235,WILLOW & PACIFIC SE,,33.804266,-118.193389,,,0
1236,1236,WILLOW & L.B. BLVD. SE,,33.804312,-118.189054,,,0
1237,1237,CARSON & ATLANTIC SE,,33.831682,-118.184634,,,0
1239,1239,CARSON & CALIFORNIA SE,,33.832359,-118.180487,,,0
1240,1240,CARSON & ORANGE NW,,33.832341,-118.175923,,,0
1241,1241,CARSON & WALNUT SW,,33.832379,-118.172265,,,0
1243,1243,CARSON & PARAMOUNT SE,,33.83228,-118.159454,,,0
1244,1244,CARSON & OBISPO SE,,33.832274,-118.156897,,,0
1245,1245,CARSON & WATSON SE,,33.832241,-118.15471,,,0
1246,1246,CARSON & WORSHAM SE,,33.83219,-118.145781,,,0
1247,1247,CARSON & LAKEWOOD SE,,33.832235,-118.141683,,,0
1249,1249,CARSON & FACULTY SE,,33.832242,-118.136678,,,0
1250,1250,CLARK & CARSON NE,,33.832551,-118.133784,,,0
1251,1251,CLARK & HARVEY WAY SE,,33.836016,-118.13378,,,0
1252,1252,CLARK & CENTRALIA NE,,33.839836,-118.133763,,,0
1253,1253,CLARK & ARBOR RD NE,,33.84332,-118.133739,,,0
1254,1254,CLARK & DEL AMO SW,,33.846178,-118.133842,,,0
1255,1255,CLARK & ARBOR RD SW,,33.842861,-118.133903,,,0
1270,1270,CARSON & LOS COYOTES SE,,33.83214,-118.098398,,,0
1271,1271,CARSON AT WORSHAM NW,,33.832521,-118.146003,,,0
1272,1272,CARSON & NECTAR NW,,33.83159,-118.088352,,,0
1274,1274,Carson and Los Coyotes Diagonal NW,,33.832348,-118.100669,,,0
1282,1282,Carson and Woodruff NE,,33.832409,-118.116375,,,0
1288,1288,CLARK & CENTRALIA NW,,33.839786,-118.133911,,,0
1289,1289,CLARK & HARVEY WAY SW,,33.835873,-118.133961,,,0
1290,1290,CLARK & L.B.C.C. NW,,33.833671,-118.133905,,,0
1291,1291,CARSON & CLARK NW,,33.832457,-118.134351,,,0
1292,1292,CARSON & FACULTY NE,,33.83246,-118.137044,,,0
1293,1293,CARSON & NORSE WAY NW,,33.832488,-118.141285,,,0
1294,1294,CARSON & LAKEWOOD NW,,33.832461,-118.142991,,,0
1295,1295,CARSON & LKWD. DR. NW,,33.832504,-118.148104,,,0
1296,1296,CARSON & CLUBHOUSE NE,,33.832512,-118.154864,,,0
1297,1297,CARSON & OBISPO NW,,33.832517,-118.157495,,,0
1298,1298,CARSON & PARAMOUNT NE,,33.832523,-118.159576,,,0
1299,1299,CARSON & WALNUT NE,,33.832552,-118.172117,,,0
1300,1300,CARSON & ORANGE SE,,33.832548,-118.176747,,,0
1301,1301,CARSON & CALIFORNIA NW,,33.832486,-118.181057,,,0
1303,1303,WILLOW & ATLANTIC NW,,33.804529,-118.185453,,,0
1304,1304,WILLOW & L.B. BLVD. NW,,33.804501,-118.189841,,,0
1305,1305,WILLOW & PACIFIC NW,,33.804499,-118.194028,,,0
1306,1306,WILLOW & CHESTNUT NW,,33.804488,-118.196003,,,0
1307,1307,WILLOW & MAGNOLIA NW,,33.804487,-118.198195,,,0
1308,1308,Carson and Woodruff SE,,33.832143,-118.116287,,,0
1309,1309,WILLOW & OREGON NW,,33.804493,-118.201552,,,0
1310,1310,WILLOW & EASY NW,,33.804477,-118.21036,,,0
1311,1311,WILLOW & CASPIAN NW,,33.804476,-118.212496,,,0
1312,1312,ADRIATIC & WILLOW SW,,33.804231,-118.214431,,,0
1313,1313,BROADWAY & L.B. BLVD. SE,,33.769281,-118.188893,,,0
1316,1316,BROADWAY & ATLANTIC SE,,33.769251,-118.184744,,,0
1318,1318,BROADWAY & ALAMITOS SE,,33.769099,-118.181838,,,0
1320,1320,BROADWAY & CERRITOS SE,,33.768626,-118.17854,,,0
1321,1321,BROADWAY & ORANGE SE,,33.76842,-118.176655,,,0
1323,1323,BROADWAY & FALCON SE,,33.767933,-118.173071,,,0
1324,1324,BROADWAY & GAVIOTA SE,,33.767702,-118.171257,,,0
1326,1326,BROADWAY & CHERRY SE,,33.76724,-118.167657,,,0
1327,1327,BROADWAY & JUNIPERO SE,,33.766828,-118.16562,,,0
1329,1329,BROADWAY & WISCONSIN SE,,33.766034,-118.161614,,,0
1330,1330,BROADWAY & TEMPLE SE,,33.765398,-118.158698,,,0
1332,1332,BROADWAY & OBISPO SE,,33.764497,-118.154377,,,0
1333,1333,BROADWAY & REDONDO SE,,33.764403,-118.152198,,,0
1335,1335,BROADWAY & GRAND SE,,33.764414,-118.147839,,,0
1336,1336,BROADWAY & TERMINO SE,,33.764409,-118.145523,,,0
1338,1338,XIMENO & BROADWAY NE,,33.764666,-118.141497,,,0
1339,1339,XIMENO & 3RD NE,,33.768273,-118.141493,,,0
1341,1341,XIMENO & 4TH NE,,33.771794,-118.141482,,,0
1342,1342,XIMENO & 7TH NE,,33.775723,-118.141496,,,0
1343,1343,XIMENO & 10TH SE,,33.778867,-118.141484,,,0
1344,1344,XIMENO & ANAHEIM NE,,33.782923,-118.141465,,,0
1345,1345,XIMENO & 15TH NE,,33.785901,-118.141427,,,0
1346,1346,PCH & XIMENO NW,,33.788028,-118.139601,,,0
1347,1347,LAKEWOOD & OUTER CIRCLE NE,,33.791739,-118.142579,,,0
1348,1348,LAKEWOOD & DE ORA E,,33.7943,-118.14259,,,0
1349,1349,LAKEWOOD & STEARNS NE,,33.796158,-118.142573,,,0
1350,1350,LAKEWOOD & 23RD NE,,33.79979,-118.14256,,,0
1351,1351,WILLOW & LAKEWOOD NW,,33.803444,-118.14306,,,0
1352,1352,Carson and Bellflower SE,,33.832194,-118.124897,,,0
1353,1353,WILLOW & GRAND NE,,33.804202,-118.147965,,,0
1354,1354,REDONDO & WILLOW NE,,33.805025,-118.151242,,,0
1355,1355,REDONDO & KILROY AIRPORT NE,,33.807859,-118.151295,,,0
1356,1356,KILROY ARPT WAY & REDONDO SE,,33.807589,-118.151069,,,0
1357,1357,KILROY ARPT WAY & 3800 BLDG NE,,33.806805,-118.145017,,,0
1358,1358,LAKEWOOD & SPRING NE,,33.813217,-118.139044,,,0
1359,1359,DOUGLAS & PRIVATE RD N,,33.818886,-118.141272,,,0
1360,1360,AIRPORT & TERMINAL W,,33.81753,-118.142919,,,0
1361,1361,LAKEWOOD & WARDLOW NE,,33.819433,-118.139107,,,0
1362,1362,LAKEWOOD & CONANT NE,,33.825279,-118.142399,,,0
1363,1363,LAKEWOOD & COVER E,,33.828549,-118.142407,,,0
1365,1365,LAKEWOOD & CARSON NE,,33.833139,-118.142379,,,0
1366,1366,LAKEWOOD & HARVEY WAY NE,,33.836375,-118.142369,,,0
1367,1367,LAKEWOOD & CENTRALIA NE,,33.839788,-118.142352,,,0
1368,1368,LAKEWOOD & ARBOR RD NE,,33.843263,-118.142348,,,0
1369,1369,LAKEWOOD & DEL AMO NE,,33.847611,-118.142387,,,0
1370,1370,LAKEWOOD & HARDWICK NE,,33.851161,-118.142364,,,0
1371,1371,CANDLEWOOD & LAKEWOOD SE,,33.853772,-118.142085,,,0
1372,1372,CANDLEWOOD & GRAYWOOD SE,,33.853775,-118.137689,,,0
1374,1374,LAKEWOOD & CANDLEWOOD SW,,33.853664,-118.142668,,,0
1375,1375,LAKEWOOD & HARDWICK SW,,33.850278,-118.142713,,,0
1376,1376,LAKEWOOD & DEL AMO SW,,33.846063,-118.142652,,,0
1377,1377,LAKEWOOD & ARBOR RD SW,,33.842813,-118.142655,,,0
1378,1378,LAKEWOOD & CENTRALIA SW,,33.839717,-118.14267,,,0
1379,1379,LAKEWOOD & HARVEY WAY SW,,33.835965,-118.14271,,,0
1380,1380,LAKEWOOD & CARSON SW,,33.831749,-118.142741,,,0
1381,1381,LAKEWOOD & COVER W,,33.827037,-118.142751,,,0
1382,1382,LAKEWOOD & CONANT SW,,33.824729,-118.142707,,,0
1384,1384,LAKEWOOD & SPRING NW,,33.812824,-118.139343,,,0
1386,1386,KILROY ARPT WAY & 3800 BLDG NW,,33.806828,-118.145161,,,0
1387,1387,REDONDO & 29TH SW,,33.806292,-118.151488,,,0
1388,1388,WILLOW & ADULT SCHOOL,,33.804547,-118.149961,,,0
1389,1389,REDONDO & KILROY AIRPORT WAY NW,,33.807714,-118.151407,,,0
1390,1390,LAKEWOOD & WILLOW SW,,33.802906,-118.142901,,,0
1391,1391,LAKEWOOD & 23RD SW,,33.799474,-118.142878,,,0
1392,1392,LAKEWOOD & STEARNS SW,,33.795871,-118.142882,,,0
1393,1393,LAKEWOOD & DE ORA W,,33.794119,-118.142879,,,0
1394,1394,OUTER CIRCLE & LAKEWOOD SE,,33.791489,-118.142407,,,0
1395,1395,XIMENO & PCH SW,,33.78764,-118.139801,,,0
1396,1396,XIMENO & RANSOM SW,,33.786402,-118.141257,,,0
1397,1397,XIMENO & ANAHEIM SW,,33.782282,-118.141615,,,0
1398,1398,XIMENO & 10TH SW,,33.778683,-118.141625,,,0
1399,1399,XIMENO & 7TH SW,,33.77499,-118.141632,,,0
1400,1400,XIMENO & 4TH SW,,33.771511,-118.141623,,,0
1402,1402,XIMENO & 3RD SW,,33.767889,-118.141627,,,0
1403,1403,BROADWAY & XIMENO NW,,33.764474,-118.141852,,,0
1405,1405,BROADWAY & TERMINO NE,,33.764502,-118.145786,,,0
1407,1407,BROADWAY & LOMA NW,,33.76451,-118.150363,,,0
1408,1408,BROADWAY & REDONDO NW,,33.764501,-118.152827,,,0
1409,1409,BROADWAY & CORTO NE,,33.764898,-118.15577,,,0
1410,1410,CONANT &  LAKEWOOD SE,,33.825029,-118.142209,,,0
1411,1411,BROADWAY & TEMPLE NE,,33.765532,-118.158823,,,0
1412,1412,BROADWAY & MOLINO NW,,33.765977,-118.160887,,,0
1414,1414,BROADWAY & JUNIPERO NW,,33.767036,-118.166039,,,0
1415,1415,BROADWAY & CHERRY NW,,33.767366,-118.168042,,,0
1417,1417,BROADWAY & GAVIOTA NW,,33.767872,-118.171722,,,0
1418,1418,BROADWAY & FALCON NW,,33.768117,-118.173551,,,0
1420,1420,BROADWAY & ORANGE NW,,33.768551,-118.177076,,,0
1421,1421,BROADWAY & CERRITOS NW,,33.768788,-118.178939,,,0
1423,1423,ALAMITOS & BROADWAY SW,,33.769038,-118.182206,,,0
1425,1425,1ST & ALAMITOS NW,,33.768147,-118.182573,,,0
1427,1427,1ST & LINDEN NE,,33.76815,-118.186288,,,0
1428,1428,WILLOW & LAKEWOOD SE,,33.803203,-118.142151,,,0
1429,1429,CLARK & WILLOW NE,,33.803735,-118.133867,,,0
1430,1430,CLARK & 28TH NE,,33.807035,-118.133908,,,0
1431,1431,CLARK & SPRING NE,,33.811088,-118.133918,,,0
1432,1432,CLARK & PAGENTRY NE,,33.813385,-118.133915,,,0
1433,1433,CLARK & MEZZANINE NE,,33.815616,-118.133899,,,0
1435,1435,CLARK & WARDLOW NE,,33.819202,-118.133878,,,0
1436,1436,CLARK & MONLACO NE,,33.822549,-118.133861,,,0
1437,1437,CLARK & CONANT SE,,33.824934,-118.133851,,,0
1438,1438,CLARK & HARCO SE,,33.826836,-118.133825,,,0
1439,1439,CLARK & HANBURY NE,,33.829457,-118.133789,,,0
1440,1440,CLARK & LEW DAVIS SW,,33.829707,-118.13401,,,0
1441,1441,CLARK & HARCO NW,,33.82694,-118.134042,,,0
1442,1442,CLARK & CONANT SW,,33.824784,-118.133956,,,0
1443,1443,CLARK & MONLACO SW,,33.82203,-118.134064,,,0
1444,1444,CLARK & WARDLOW SW,,33.818518,-118.134058,,,0
1446,1446,CLARK & MEZZANINE SW,,33.815067,-118.134027,,,0
1447,1447,CLARK & PAGENTRY SW,,33.81288,-118.134036,,,0
1448,1448,CLARK & SPRING NW,,33.811039,-118.134043,,,0
1449,1449,CLARK & 28TH SW,,33.806621,-118.134052,,,0
1450,1450,CLARK & WILLOW NW,,33.803792,-118.134105,,,0
1453,1453,OCEAN & QUEENSWAY SE,,33.767208,-118.197903,,,0
1454,1454,OCEAN & CHESTNUT SE,,33.767139,-118.19629,,,0
1455,1455,OCEAN & CHERRY SE,,33.764386,-118.168222,,,0
1456,1456,OCEAN & 19TH PL SE,,33.763826,-118.165209,,,0
1457,1457,OCEAN & LINDERO SE,,33.76309,-118.163058,,,0
1458,1458,OCEAN & TEMPLE SE,,33.762338,-118.159488,,,0
1459,1459,OCEAN & PALOMA SE,,33.76166,-118.156059,,,0
1460,1460,OCEAN & REDONDO SE,,33.760905,-118.152393,,,0
1461,1461,OCEAN & 38TH PL SW,,33.76044,-118.148931,,,0
1462,1462,LIVINGSTON & TERMINO SE,,33.760562,-118.145385,,,0
1464,1464,LIVINGSTON & XIMENO SE,,33.761581,-118.141491,,,0
1465,1465,PCH AND 2ND NE,,33.758373,-118.111266,,,0
1467,1467,LOYNES & PCH SE,,33.76748,-118.116036,,,0
1468,1468,BIXBY VILLAGE & LOYNES NE,,33.768999,-118.114044,,,0
1469,1469,CHANNEL & 7TH SW,,33.774443,-118.119109,,,0
1470,1470,BIXBY VILLAGE & S.GREENWAY W,,33.771685,-118.114528,,,0
1471,1471,PCH & LOYNES SW,,33.76694,-118.116979,,,0
1473,1473,PCH & MARINA PACIFICA W,,33.759923,-118.113149,,,0
1474,1474,LIVINGSTON & XIMENO NW,,33.761778,-118.141778,,,0
1477,1477,OCEAN & GRAND NW,,33.760591,-118.148411,,,0
1478,1478,OCEAN & REDONDO NW,,33.761124,-118.152939,,,0
1479,1479,OCEAN & PALOMA NW,,33.761853,-118.156431,,,0
1480,1480,OCEAN & TEMPLE NW,,33.76261,-118.160045,,,0
1481,1481,OCEAN & LINDERO NW,,33.763328,-118.163471,,,0
1482,1482,OCEAN & KENNEBEC NW,,33.763969,-118.16513,,,0
1483,1483,PCH & LOYNES NE,,33.767605,-118.116846,,,0
1484,1484,Central & Victoria SW,,33.867106,-118.2488,,,0
1485,1485,Victoria and Central NW,,33.86758,-118.249139,,,0
1488,1488,Central & University SW,,33.857426,-118.248699,,,0
1489,1489,Central and University NE,,33.85797,-118.248435,,,0
1490,1490,Central & Turmont SW,,33.853208,-118.248651,,,0
1491,1491,Central and Turmont,,33.853658,-118.248408,,,0
1492,1492,Central & Helmick SW,,33.851511,-118.248661,,,0
1493,1493,Central and Helmick NE,,33.851957,-118.248406,,,0
1494,1494,Avalon & Del Amo SW,,33.84731,-118.264942,,,0
1495,1495,Central and Del Amo NE,,33.847142,-118.248406,,,0
1496,1496,Avalon & South Bay Pavilion SW,,33.843229,-118.263161,,,0
1497,1497,Avalon and South Bay Pavilion SE,,33.843329,-118.26294,,,0
1498,1498,Avalon & 213th SW,,33.835173,-118.263837,,,0
1499,1499,Avalon and 213th NE,,33.835605,-118.263531,,,0
1500,1500,Avalon & Carson SW,,33.831357,-118.263802,,,0
1501,1501,Avalon and Carson NE,,33.832578,-118.263523,,,0
1502,1502,Avalon and 220th SW,,33.827514,-118.263798,,,0
1503,1503,Avalon and 220th SE,,33.828078,-118.263518,,,0
1504,1504,223rd and Avalon NW,,33.824271,-118.264108,,,0
1505,1505,Avalon and 223rd,,33.824562,-118.26351,,,0
1506,1506,223rd and Grace NW,,33.824262,-118.268272,,,0
1507,1507,223rd & Grace SE,,33.824146,-118.267829,,,0
1508,1508,223rd and Dolores NW,,33.824244,-118.272686,,,0
1509,1509,223rd and Dolores SW,,33.824143,-118.272488,,,0
1510,1510,Main and 223rd SW,,33.824078,-118.276138,,,0
1511,1511,223rd and Main SE,,33.824138,-118.275546,,,0
1512,1512,Main and 225th SW,,33.821796,-118.275779,,,0
1513,1513,223rd and Moneta SW,,33.824229,-118.281894,,,0
1514,1514,Main and 228th SW,,33.818696,-118.275652,,,0
1516,1516,Main and 234th NW,,33.813585,-118.275716,,,0
1517,1517,Figueroa and Shadewell NE,,33.821977,-118.2859,,,0
1518,1518,Sepulveda and Main NW,,33.807994,-118.276303,,,0
1519,1519,Figueroa and 228th NE,,33.819218,-118.285822,,,0
1520,1520,321 W Sepulveda NE,,33.808014,-118.279091,,,0
1522,1522,Figueroa and Sepulveda NE,,33.808173,-118.284509,,,0
1523,1523,Figueroa & 234 SE,,33.813211,-118.285317,,,0
1525,1525,Figueroa & Carriagedale SE,,33.809907,-118.285219,,,0
1531,1531,OCEAN & MAGNOLIA NW,,33.767435,-118.198407,,,0
1541,1541,Ximeno & PCH SE,,33.787584,-118.139669,,,0
1546,1546,SANTA FE & DOMINGUEZ NE,,33.839689,-118.213898,,,0
1547,1547,SANTA FE & EL PRESIDIO NE,,33.841986,-118.213112,,,0
1549,1549,DEL AMO & PACIFIC SW,,33.846556,-118.198271,,,0
1550,1550,DEL AMO & L.B. BLVD SE,,33.846644,-118.193078,,,0
1551,1551,DEL AMO & LOCUST SE,,33.846331,-118.189478,,,0
1552,1552,DEL AMO & ATLANTIC SE,,33.845239,-118.184236,,,0
1553,1553,DEL AMO & ORANGE SW,,33.846865,-118.177003,,,0
1554,1554,DEL AMO & CHERRY SE,,33.8468,-118.167009,,,0
1555,1555,DEL AMO & CLAIR DEL SE,,33.846952,-118.165096,,,0
1556,1556,DEL AMO & PARAMOUNT SE,,33.846996,-118.159369,,,0
1557,1557,DEL AMO & OBISPO SE,,33.847032,-118.15444,,,0
1558,1558,DEL AMO & DOWNEY SW,,33.847075,-118.151522,,,0
1559,1559,DEL AMO & BELLFLOWER SE,,33.847004,-118.124633,,,0
1560,1560,DEL AMO & EASTBROOK SE,,33.846956,-118.120453,,,0
1561,1561,DEL AMO & WOODRUFF SE,,33.846971,-118.115932,,,0
1562,1562,DEL AMO & SNOWDEN SE,,33.846906,-118.111453,,,0
1563,1563,DEL AMO & PALO VERDE SE,,33.846944,-118.10708,,,0
1564,1564,DEL AMO & STABLES S,,33.845837,-118.096112,,,0
1565,1565,DEL AMO & ROSETON SE,,33.845924,-118.086549,,,0
1566,1566,DEL AMO & PIONEER SE,,33.845955,-118.081589,,,0
1567,1567,DEL AMO & VIOLETA SE,,33.845971,-118.078606,,,0
1568,1568,DEL AMO & ARTESIA H.S. S,,33.845993,-118.074598,,,0
1569,1569,DEL AMO & NORWALK SE,,33.845936,-118.071177,,,0
1570,1570,DEL AMO & CLARETTA SE,,33.84603,-118.067587,,,0
1572,1572,BLOOMFIELD & DEL AMO SW,,33.845864,-118.063549,,,0
1573,1573,BLOOMFIELD & LEMMING SW,,33.840822,-118.063516,,,0
1574,1574,CENTRALIA & BLOOMFIELD NW,,33.838826,-118.063924,,,0
1575,1575,CENTRALIA & CLARETTA NW,,33.838795,-118.067574,,,0
1576,1576,CENTRALIA & NORWALK NW,,33.838844,-118.072547,,,0
1577,1577,CENTRALIA & ELAINE NW,,33.83882,-118.076679,,,0
1578,1578,CENTRALIA & PIONEER NW,,33.838824,-118.08236,,,0
1579,1579,CENTRALIA & GRIDLEY NW,,33.838779,-118.09102,,,0
1580,1580,STUDEBAKER & LEMMING NE,,33.841154,-118.093779,,,0
1581,1581,STUDEBAKER & HORNET NE,,33.843283,-118.094884,,,0
1582,1582,DEL AMO & PALO VERDE NE,,33.847108,-118.107294,,,0
1583,1583,DEL AMO & MC NAB NW,,33.84711,-118.111839,,,0
1584,1584,DEL AMO & WOODRUFF NW,,33.847144,-118.116752,,,0
1585,1585,DEL AMO & DUNROBIN NW,,33.847147,-118.121728,,,0
1586,1586,DEL AMO & LAKEWOOD NW,,33.847233,-118.143131,,,0
1587,1587,DEL AMO & DOWNEY NW,,33.847231,-118.151631,,,0
1588,1588,DEL AMO & OBISPO NW,,33.847183,-118.155075,,,0
1589,1589,DEL AMO & PARAMOUNT NW,,33.84717,-118.160397,,,0
1590,1590,DEL AMO & CLAIR DEL NW,,33.847108,-118.165768,,,0
1591,1591,DEL AMO & CHERRY NW,,33.847075,-118.168133,,,0
1592,1592,DEL AMO & ORANGE NW,,33.8471,-118.177314,,,0
1593,1593,DEL AMO & ATLANTIC NW,,33.845282,-118.185362,,,0
1594,1594,DEL AMO & LOCUST NW,,33.846635,-118.189907,,,0
1595,1595,DEL AMO & DEL AMO GARDENS N,,33.846854,-118.192525,,,0
1596,1596,DEL AMO & L.B. BLVD NW,,33.846837,-118.194485,,,0
1597,1597,DEL AMO & DAISY NW,,33.846756,-118.19897,,,0
1598,1598,SANTA FE & DEL AMO SW,,33.846517,-118.211803,,,0
1599,1599,SANTA FE & EL PRESIDIO SW,,33.841324,-118.213486,,,0
1600,1600,SANTA FE & DOMINGUEZ SW,,33.83901,-118.214418,,,0
1601,1601,SANTA FE & VAN BUREN SW,,33.836797,-118.215265,,,0
1602,1602,SANTA FE & MADISON NW,,33.834878,-118.215958,,,0
1604,1604,MARKET & L.B. BLVD SE,,33.854242,-118.196247,,,0
1605,1605,MARKET & CEDAR SE,,33.854244,-118.193566,,,0
1606,1606,MARKET & PINE SE,,33.854286,-118.191554,,,0
1607,1607,MARKET & ELM SE,,33.854296,-118.188208,,,0
1608,1608,SOUTH & ATLANTIC SE,,33.860037,-118.184644,,,0
1609,1609,SOUTH & MYRTLE SE,,33.860044,-118.181745,,,0
1610,1610,SOUTH & LEMON SE,,33.860054,-118.178867,,,0
1611,1611,SOUTH & ORANGE SE,,33.860106,-118.17696,,,0
1612,1612,SOUTH & GUNDRY SE,,33.860108,-118.175372,,,0
1613,1613,SOUTH & WALNUT SE,,33.860059,-118.173254,,,0
1614,1614,SOUTH & ROSE SW,,33.86009,-118.170712,,,0
1615,1615,SOUTH & CHERRY SE,,33.860025,-118.168149,,,0
1616,1616,SOUTH & ACKERFIELD SW,,33.860069,-118.163847,,,0
1617,1617,SOUTH & PARAMOUNT SE,,33.860104,-118.159362,,,0
1618,1618,SOUTH & OBISPO SW,,33.860138,-118.155439,,,0
1619,1619,SOUTH & DOWNEY SE,,33.860144,-118.151032,,,0
1620,1620,SOUTH & HAYTER SE,,33.8602,-118.145765,,,0
1621,1621,SOUTH & LAKEWOOD SE,,33.860186,-118.141496,,,0
1622,1622,SOUTH & GRAYWOOD SE,,33.860204,-118.137662,,,0
1623,1623,SOUTH & CLARK SE,,33.860185,-118.133623,,,0
1624,1624,SOUTH & PEARCE SE,,33.860243,-118.12984,,,0
1625,1625,SOUTH & BELLFLOWER SE,,33.860237,-118.124639,,,0
1626,1626,SOUTH & OCANA SE,,33.859017,-118.11968,,,0
1627,1627,SOUTH & WOODRUFF SE,,33.85818,-118.11674,,,0
1628,1628,SOUTH & GONDAR SW,,33.85821,-118.113388,,,0
1629,1629,SOUTH & PALO VERDE SE,,33.858212,-118.107532,,,0
1630,1630,STUDEBAKER & SOUTH NE,,33.858738,-118.099523,,,0
1631,1631,STUDEBAKER & AUTO SQUARE NE,,33.862272,-118.099514,,,0
1632,1632,183RD & STUDEBAKER SE,,33.865518,-118.099099,,,0
1633,1633,183RD & SERVICE RD SE,,33.865522,-118.097334,,,0
1634,1634,183RD & LOS CERRITOS CENTER SE,,33.865552,-118.09439,,,0
1637,1637,SOUTH & STUDEBAKER NW,,33.858438,-118.100626,,,0
1638,1638,SOUTH & PALO VERDE NE,,33.85836,-118.108047,,,0
1639,1639,SOUTH & SNOWDEN NW,,33.858356,-118.112206,,,0
1640,1640,SOUTH & WOODRUFF NE,,33.858337,-118.116751,,,0
1641,1641,SOUTH & OCANA NW,,33.859552,-118.120442,,,0
1642,1642,SOUTH & BELLFLOWER NW,,33.860464,-118.125611,,,0
1643,1643,SOUTH & PEARCE NW,,33.860364,-118.12984,,,0
1644,1644,SOUTH & CLARK NW,,33.860433,-118.134226,,,0
1645,1645,SOUTH & GRAYWOOD NW,,33.860322,-118.138028,,,0
1646,1646,SOUTH & LAKEWOOD NW,,33.860376,-118.143032,,,0
1647,1647,SOUTH & HAYTER NW,,33.860296,-118.146419,,,0
1648,1648,SOUTH & DOWNEY NW,,33.8603,-118.151635,,,0
1649,1649,SOUTH & OBISPO NW,,33.860289,-118.156071,,,0
1650,1650,SOUTH & PARAMOUNT NW,,33.860266,-118.16036,,,0
1651,1651,SOUTH & ACKERFIELD NW,,33.860259,-118.163492,,,0
1652,1652,SOUTH & CHERRY NW,,33.860238,-118.16891,,,0
1653,1653,SOUTH & ROSE NW,,33.860214,-118.170817,,,0
1654,1654,SOUTH & WALNUT NW,,33.860198,-118.173798,,,0
1655,1655,SOUTH & GUNDRY NW,,33.860176,-118.175609,,,0
1656,1656,SOUTH & ORANGE NE,,33.86017,-118.177085,,,0
1657,1657,SOUTH & LEWIS NW,,33.860178,-118.180395,,,0
1658,1658,SOUTH & MYRTLE NW,,33.860158,-118.18225,,,0
1659,1659,MARKET & ELM NW,,33.854392,-118.188626,,,0
1660,1660,MARKET & PINE NW,,33.854376,-118.191996,,,0
1662,1662,PCH & L.B. BLVD. SE,,33.789756,-118.188248,,,0
1663,1663,PCH & ATLANTIC SE,,33.789784,-118.184226,,,0
1665,1665,PCH & M.L. KING SW,,33.789781,-118.180507,,,0
1667,1667,PCH & ORANGE SE,,33.789781,-118.175782,,,0
1668,1668,PCH & WALNUT SE,,33.789778,-118.17175,,,0
1670,1670,PCH & CHERRY SE,,33.789766,-118.166394,,,0
1672,1672,PCH & JUNIPERO SW,,33.789794,-118.163434,,,0
1674,1674,PCH & TEMPLE SE,,33.789787,-118.158603,,,0
1676,1676,PCH & OBISPO SE,,33.789782,-118.154314,,,0
1677,1677,PCH & REDONDO SE,,33.789772,-118.151543,,,0
1679,1679,PCH & GRAND SE,,33.789752,-118.147851,,,0
1680,1680,PCH & TERMINO SW,,33.789759,-118.146209,,,0
1681,1681,XIMENO & PCH NE,,33.788025,-118.139216,,,0
1682,1682,PCH & TERMINO NW,,33.789927,-118.146186,,,0
1683,1683,PCH & REDONDO NW,,33.789925,-118.152136,,,0
1684,1684,PCH & OBISPO NW,,33.789949,-118.15496,,,0
1686,1686,PCH & TEMPLE NW,,33.789959,-118.159337,,,0
1688,1688,PCH & JUNIPERO NW,,33.789962,-118.163612,,,0
1690,1690,PCH & CHERRY NE,,33.789931,-118.167535,,,0
1692,1692,PCH & WALNUT NW,,33.789969,-118.172231,,,0
1693,1693,PCH & LBCC NE,,33.789965,-118.175466,,,0
1695,1695,PCH & M.L. KING NE,,33.789913,-118.180514,,,0
1697,1697,PCH & ATLANTIC NW,,33.789955,-118.185447,,,0
1698,1698,PCH & L.B. BLVD NE,,33.789958,-118.188816,,,0
1699,1699,XIMENO & ATHERTON NE,,33.790034,-118.138841,,,0
1700,1700,LOS COYOTES & XIMENO NE,,33.792147,-118.139279,,,0
1701,1701,LOS COYOTES & PARK SE,,33.793193,-118.137892,,,0
1702,1702,LOS COYOTES & CLARK SW,,33.795867,-118.134374,,,0
1703,1703,STEARNS & FIDLER SE,,33.796016,-118.131965,,,0
1704,1704,STEARNS & STANBRIDGE SE,,33.795947,-118.129428,,,0
1705,1705,STEARNS & STEARNLEE SE,,33.79599,-118.127568,,,0
1706,1706,STEARNS & BELLFLOWER SE,,33.795943,-118.125044,,,0
1707,1707,STEARNS & SAN ANSELINE SE,,33.795947,-118.121137,,,0
1708,1708,STEARNS & RADNOR SE,,33.795956,-118.118517,,,0
1709,1709,STEARNS & FANWOOD SE,,33.79592,-118.115713,,,0
1710,1710,STEARNS & SENASAC SE,,33.79591,-118.114104,,,0
1711,1711,STEARNS & MC NAB SE,,33.795904,-118.112119,,,0
1712,1712,PALO VERDE & STEARNS NE,,33.795789,-118.107757,,,0
1713,1713,PALO VERDE & CANTEL NE,,33.798501,-118.107874,,,0
1714,1714,PALO VERDE & LOS ARCOS NE,,33.800504,-118.107866,,,0
1715,1715,PALO VERDE & WILLOW NE,,33.80369,-118.107865,,,0
1716,1716,PALO VERDE & BARBANELL NE,,33.805533,-118.10785,,,0
1717,1717,PALO VERDE & BELEN NE,,33.809529,-118.107822,,,0
1718,1718,PALO VERDE & SPRING NE,,33.810864,-118.107824,,,0
1719,1719,PALO VERDE & METZ NE,,33.815415,-118.107826,,,0
1720,1720,PALO VERDE & WARDLOW NE,,33.819138,-118.107818,,,0
1721,1721,PALO VERDE & LOS COYOTES NE,,33.820875,-118.107804,,,0
1722,1722,PALO VERDE & KEYNOTE NE,,33.823194,-118.107807,,,0
1723,1723,PALO VERDE & CONANT NE,,33.825167,-118.107682,,,0
1724,1724,PALO VERDE & HARCO NE,,33.827612,-118.107675,,,0
1725,1725,PALO VERDE & CARSON SE,,33.831831,-118.107667,,,0
1726,1726,PALO VERDE & HARVEY NE,,33.836257,-118.107741,,,0
1727,1727,PALO VERDE & CENTRALIA NE,,33.839763,-118.107716,,,0
1728,1728,PALO VERDE & ARBOR NE,,33.843415,-118.107688,,,0
1729,1729,PALO VERDE & DEL AMO NE,,33.847402,-118.107696,,,0
1730,1730,PALO VERDE & DENMEAD NE,,33.851633,-118.108238,,,0
1731,1731,PALO VERDE & CANDLEWOOD NE,,33.853601,-118.108261,,,0
1732,1732,PALO VERDE & MICHELSON NE,,33.856109,-118.10828,,,0
1738,1738,PALO VERDE & SOUTH SW,,33.857851,-118.108428,,,0
1739,1739,PALO VERDE & MICHELSON SW,,33.855653,-118.108425,,,0
1740,1740,PALO VERDE & CANDLEWOOD SW,,33.852985,-118.108408,,,0
1741,1741,PALO VERDE & DENMEAD NW,,33.851682,-118.108406,,,0
1742,1742,PALO VERDE & CARFAX SW,,33.848959,-118.10837,,,0
1743,1743,PALO VERDE & DEL AMO SW,,33.846753,-118.107811,,,0
1744,1744,PALO VERDE & ARBOR ROAD SW,,33.842992,-118.107839,,,0
1745,1745,PALO VERDE & CENTRALIA SW,,33.839343,-118.107844,,,0
1746,1746,PALO VERDE & HARVEY WAY SW,,33.835732,-118.107882,,,0
1747,1747,PALO VERDE & CARSON SW,,33.831879,-118.107897,,,0
1748,1748,PALO VERDE & HARCO SW,,33.827269,-118.107897,,,0
1749,1749,PALO VERDE & CONANT NW,,33.825345,-118.107898,,,0
1750,1750,PALO VERDE & KEYNOTE SW,,33.822806,-118.107918,,,0
1752,1752,PALO VERDE & WARDLOW SW,,33.818377,-118.107942,,,0
1753,1753,PALO VERDE & METZ SW,,33.81494,-118.107908,,,0
1754,1754,PALO VERDE & SPRING NW,,33.810949,-118.107934,,,0
1755,1755,PALO VERDE & BARBANELL SW,,33.805035,-118.107966,,,0
1756,1756,PALO VERDE & WILLOW NW,,33.803505,-118.107995,,,0
1757,1757,PALO VERDE & LOS ARCOS SW,,33.800082,-118.108008,,,0
1758,1758,PALO VERDE & WOODRUFF SW,,33.797859,-118.108064,,,0
1759,1759,STEARNS & PALO VERDE NW,,33.795483,-118.10811,,,0
1760,1760,STEARNS & MC NAB NW,,33.796049,-118.112985,,,0
1761,1761,STEARNS & FANWOOD NW,,33.796059,-118.116954,,,0
1763,1763,STEARNS & SAN ANSELINE NW,,33.796059,-118.121108,,,0
1764,1764,STEARNS & BELLFLOWER NW,,33.796132,-118.125874,,,0
1765,1765,STEARNS & STEARNLEE NW,,33.796124,-118.128019,,,0
1766,1766,STEARNS & STANBRIDGE NW,,33.796109,-118.129839,,,0
1767,1767,STEARNS & FIDLER NW,,33.796125,-118.132512,,,0
1768,1768,LOS COYOTES & STEARNS SW,,33.795903,-118.13469,,,0
1769,1769,LOS COYOTES & LA CARA NW,,33.792892,-118.138592,,,0
1770,1770,XIMENO & LOS COYOTES SE,,33.791622,-118.13936,,,0
1771,1771,XIMENO & ATHERTON SW,,33.789545,-118.139034,,,0
1772,1772,ATHERTON & XIMENO SE,,33.789763,-118.138554,,,0
1774,1774,ATHERTON & CLARK SE,,33.789677,-118.1337,,,0
1776,1776,ATHERTON & ASHBROOK SE,,33.788853,-118.130615,,,0
1777,1777,ATHERTON & LITCHFIELD SE,,33.788161,-118.128754,,,0
1778,1778,ATHERTON & STEARNLEE SE,,33.788188,-118.126365,,,0
1779,1779,ATHERTON & BELLFLOWER SE,,33.788534,-118.123911,,,0
1780,1780,ATHERTON & CHATWIN SE,,33.788687,-118.122193,,,0
1781,1781,ATHERTON & LAVE SE,,33.788675,-118.120018,,,0
1783,1783,ATHERTON & FANWOOD SE,,33.788668,-118.115861,,,0
1784,1784,ATHERTON & MC NAB SE,,33.788705,-118.112373,,,0
1785,1785,ATHERTON & CARFAX SE,,33.7886,-118.10972,,,0
1786,1786,STUDEBAKER & ATHERTON NE,,33.789057,-118.099167,,,0
1787,1787,STUDEBAKER & LOS SANTOS NE,,33.792481,-118.099126,,,0
1788,1788,STUDEBAKER & STEARNS NE,,33.796371,-118.099083,,,0
1790,1790,STUDEBAKER & LOS ARCOS NE,,33.800219,-118.099066,,,0
1791,1791,STUDEBAKER & WILLOW NE,,33.803566,-118.099048,,,0
1792,1792,STUDEBAKER & BARRIOS NE,,33.807146,-118.099018,,,0
1793,1793,STUDEBAKER & SPRING NE,,33.810877,-118.099029,,,0
1794,1794,STUDEBAKER & MEZZANINE NE,,33.814884,-118.099059,,,0
1795,1795,STUDEBAKER & WARDLOW SE,,33.818579,-118.099073,,,0
1796,1796,STUDEBAKER & KEYNOTE NE,,33.82313,-118.099039,,,0
1797,1797,STUDEBAKER & HARCO NE,,33.827861,-118.099028,,,0
1798,1798,LOS COYOTES & PARKCREST NE,,33.830526,-118.099264,,,0
1799,1799,CARSON & LB TOWNE CENTER SE,,33.831245,-118.087419,,,0
1800,1800,CARSON & PIONEER SE,,33.831326,-118.081197,,,0
1801,1801,CARSON & VIOLETA SE,,33.831369,-118.078628,,,0
1802,1802,CARSON & JUAN SE,,33.831337,-118.073589,,,0
1803,1803,WARDLOW & CLAREMORE NW,,33.817734,-118.078428,,,0
1804,1804,Civic Center and Ibex NE,,33.82962,-118.072652,,,0
1805,1805,WARDLOW & VOLK NW,,33.818932,-118.094827,,,0
1806,1806,Civic Center and Joliet NE,,33.829619,-118.074617,,,0
1807,1807,NORWALK & CIVIC CENTER NW,,33.830044,-118.072104,,,0
1808,1808,NORWALK & 221ST SW,,33.827447,-118.071997,,,0
1809,1809,CARSON & JUAN SW,,33.831368,-118.075715,,,0
1810,1810,NORWALK & 226TH SW,,33.823407,-118.071954,,,0
1811,1811,NORWALK & RING SW,,33.821522,-118.071916,,,0
1812,1812,NORWALK & WARDLOW NW,,33.818195,-118.07194,,,0
1813,1813,STUDEBAKER & LOS SANTOS SW,,33.791969,-118.099394,,,0
1814,1814,ATHERTON & STUDEBAKER NW,,33.788765,-118.099529,,,0
1815,1815,ATHERTON & VUELTA GRANDE NW,,33.78882,-118.103142,,,0
1816,1816,ATHERTON & PALO VERDE NE,,33.788833,-118.107585,,,0
1818,1818,ATHERTON & MC NAB NW,,33.788811,-118.113403,,,0
1820,1820,ATHERTON & FANWOOD NW,,33.78883,-118.116595,,,0
1822,1822,ATHERTON & CHATWIN NE,,33.788842,-118.122234,,,0
1823,1823,ATHERTON & BELLFLOWER NW,,33.788493,-118.125055,,,0
1824,1824,ATHERTON & STEARNLEE NW,,33.788303,-118.126968,,,0
1825,1825,ATHERTON & LITCHFIELD NW,,33.788408,-118.129008,,,0
1826,1826,ATHERTON & ASHBROOK NW,,33.789189,-118.130961,,,0
1828,1828,ATHERTON & CLARK NE,,33.789853,-118.133769,,,0
1829,1829,ATHERTON & PARK NW,,33.789951,-118.13709,,,0
1830,1830,Residence Inn (NB Direction),,33.75856,-118.20198,,,0
1831,1831,Clark & Atherton SW,,33.789579,-118.134112,,,0
1832,1832,Clark & Clark Terrace,,33.787289,-118.134149,,,0
1838,1838,QUEENSWAY & HARBOR PLAZA DR NE,,33.753932,-118.195342,,,0
1840,1840,Maya Hotel (NB Direction),,33.755606,-118.197843,,,0
1841,1841,SHORELINE & VILLAGE W,,33.760525,-118.189445,,,0
1842,1842,SPRING & STUDEBAKER NW,,33.810565,-118.099342,,,0
1843,1843,SPRING & NIPOMO NW,,33.810583,-118.102264,,,0
1844,1844,SPRING & PALO VERDE NW,,33.810619,-118.108199,,,0
1846,1846,SPRING & WOODRUFF NW,,33.810659,-118.115523,,,0
1847,1847,SPRING & LOS COYOTES NW,,33.810636,-118.117054,,,0
1848,1848,SPRING & SAN ANSELINE NW,,33.810623,-118.121649,,,0
1849,1849,SPRING & BELLFLOWER NW,,33.810655,-118.125481,,,0
1850,1850,SPRING & CHARLEMAGNE NW,,33.810663,-118.130879,,,0
1851,1851,SPRING & CLARK NW,,33.810689,-118.134112,,,0
1852,1852,SPRING & AIRPORT PL NE,,33.811462,-118.136565,,,0
1853,1853,WILLOW & PALM NW,,33.804558,-118.155464,,,0
1854,1854,WILLOW & TEMPLE NW,,33.804558,-118.159661,,,0
1855,1855,WILLOW & JUNIPERO NW,,33.804553,-118.163673,,,0
1856,1856,WILLOW & CHERRY NW,,33.80453,-118.168064,,,0
1857,1857,WILLOW & WALNUT NW,,33.804464,-118.172438,,,0
1858,1858,WILLOW & ORANGE NW,,33.804397,-118.176951,,,0
1859,1859,WILLOW & CALIFORNIA NW,,33.804448,-118.181414,,,0
1860,1860,WILLOW & ATLANTIC SE,,33.804291,-118.184748,,,0
1861,1861,WILLOW & LEWIS SW,,33.804224,-118.179972,,,0
1862,1862,WILLOW & ORANGE SW,,33.804229,-118.176618,,,0
1863,1863,WILLOW & WALNUT SE,,33.804257,-118.170539,,,0
1864,1864,WILLOW & CHERRY SE,,33.804309,-118.1673,,,0
1865,1865,WILLOW & JUNIPERO SE,,33.80432,-118.162952,,,0
1866,1866,WILLOW & TEMPLE SE,,33.804315,-118.158666,,,0
1867,1867,WILLOW & PALM SE,,33.804326,-118.154736,,,0
1868,1868,WILLOW & REDONDO SE,,33.804314,-118.150747,,,0
1869,1869,WILLOW & GRAND SE,,33.803925,-118.147853,,,0
1870,1870,LAKEWOOD & WILLOW NE,,33.803802,-118.142537,,,0
1871,1871,SPRING & LAKEWOOD SE,,33.8125,-118.138884,,,0
1872,1872,SPRING & AIRPORT PL SE,,33.811299,-118.136753,,,0
1873,1873,SPRING & CLARK SE,,33.810467,-118.133881,,,0
1875,1875,SPRING & BELLFLOWER SE,,33.810422,-118.125069,,,0
1877,1877,SPRING & LOS COYOTES SE,,33.810441,-118.116968,,,0
1878,1878,SPRING & WOODRUFF SE,,33.810413,-118.113972,,,0
1879,1879,SPRING & SNOWDEN SE,,33.810366,-118.110806,,,0
1880,1880,SPRING & PALO VERDE SE,,33.810392,-118.107553,,,0
1881,1881,SPRING & NIPOMO SE,,33.810356,-118.101598,,,0
1884,1884,WARDLOW & STEVELY SE,,33.818747,-118.092414,,,0
1885,1885,WARDLOW & CLAREMORE AVE SE,,33.817581,-118.077733,,,0
1886,1886,NORWALK & WARDLOW NE,,33.818204,-118.071737,,,0
1887,1887,NORWALK & TORIN NE,,33.821091,-118.071712,,,0
1888,1888,NORWALK & 226TH SE,,33.823789,-118.071727,,,0
1890,1890,NORWALK & 221ST SE,,33.827372,-118.071832,,,0
1892,1892,CARSON & NORWALK NW,,33.83156,-118.072484,,,0
1893,1893,CARSON & JUAN NW,,33.831571,-118.076281,,,0
1894,1894,CARSON & VIOLETA NE,,33.831563,-118.079692,,,0
1896,1896,NORWALK & CARSON NE,,33.831824,-118.071971,,,0
1897,1897,NORWALK & 214TH NE,,33.835368,-118.071981,,,0
1898,1898,NORWALK & CENTRALIA NE,,33.839103,-118.072017,,,0
1899,1899,NORWALK & 207TH NE,,33.842631,-118.072046,,,0
1900,1900,NORWALK & DEL AMO NE,,33.846602,-118.071985,,,0
1901,1901,NORWALK & YEARLING NE,,33.849699,-118.072033,,,0
1902,1902,NORWALK & FLORA VISTA NE,,33.854104,-118.072113,,,0
1903,1903,SOUTH & NORWALK NW,,33.858623,-118.072827,,,0
1905,1905,SOUTH @ ELAINE NW,,33.858584,-118.076967,,,0
1906,1906,SOUTH & PIONEER NE,,33.858578,-118.082573,,,0
1907,1907,SOUTH & JERSEY NE,,33.858559,-118.085633,,,0
1908,1908,SOUTH & TARGET (CERRITOS) N,,33.858552,-118.087863,,,0
1909,1909,GRIDLEY & SOUTH NE,,33.85863,-118.09073,,,0
1910,1910,GRIDLEY & 184TH NE,,33.864513,-118.09087,,,0
1911,1911,183RD & GRIDLEY NW,,33.865806,-118.091728,,,0
1912,1912,183RD & LOS CERRITOS NW,,33.865762,-118.095176,,,0
1915,1915,GRIDLEY & 187TH NE,,33.861581,-118.090822,,,0
1916,1916,GRIDLEY & 187TH SW,,33.860748,-118.091083,,,0
1917,1917,SOUTH & GRIDLEY SE,,33.85827,-118.090173,,,0
1918,1918,SOUTH & JERSEY S,,33.858372,-118.085827,,,0
1919,1919,SOUTH & PIONEER SE,,33.858347,-118.08174,,,0
1920,1920,SOUTH & ELAINE SW,,33.858436,-118.076467,,,0
1922,1922,SOUTH & NORWALK SW,,33.858458,-118.072709,,,0
1923,1923,NORWALK & FLORA VISTA NW,,33.854512,-118.072369,,,0
1924,1924,NORWALK & YEARLING SW,,33.849113,-118.072272,,,0
1925,1925,NORWALK & DEL AMO SW,,33.845774,-118.072223,,,0
1926,1926,NORWALK & 207TH NW,,33.84254,-118.072191,,,0
1927,1927,NORWALK & CENTRALIA SW,,33.83846,-118.072178,,,0
1928,1928,NORWALK & 214TH NW,,33.835388,-118.072155,,,0
1934,1934,STUDEBAKER & HARCO NW,,33.828426,-118.099255,,,0
1936,1936,Wardlow & Delta SE,,33.823581,-118.210916,,,0
1938,1938,Wardlow & River SW,,33.824181,-118.222463,,,0
1940,1940,223rd & Marathon SW,,33.824241,-118.233225,,,0
1941,1941,Wardlow & McHelen NE,,33.824423,-118.222191,,,0
1942,1942,223rd & Wilmington SE,,33.824114,-118.241418,,,0
1943,1943,223rd & Marathon NW,,33.824329,-118.2333,,,0
1945,1945,223rd & Wilmington NE,,33.8244,-118.241235,,,0
1947,1947,223rd & Lucerne NW,,33.824374,-118.250997,,,0
1949,1949,223rd & Edgar NE,,33.824358,-118.254706,,,0
1950,1950,223rd & Avalon SE,,33.82409,-118.263093,,,0
1951,1951,223rd & Bonita NW,,33.824365,-118.259601,,,0
1956,1956,223rd & Vermont SE,,33.824294,-118.289805,,,0
1959,1959,223rd & Main NW,,33.824425,-118.276517,,,0
1963,1963,223rd & Figueroa NW,,33.824555,-118.286475,,,0
1965,1965,223rd & Vermont NW,,33.824555,-118.290718,,,0
1972,1972,CARSON & WALMART TOWNE CENTER NE,,33.83153,-118.089921,,,0
1996,1996,LOS CERRITOS CENTER LAYOVER,,33.865569,-118.096333,,,0
1998,1998,Santa Fe & Carson NW,,33.831885,-118.217068,,,0
2000,2000,CARSON & SANTA FE SE,,33.831681,-118.216582,,,0
2001,2001,2727 Del Amo Blvd N,,33.846763,-118.21454,,,0
2002,2002,2660 Del Amo Blvd S,,33.846526,-118.214765,,,0
2003,2003,Del Amo & Rancho Way NW,,33.84677,-118.224114,,,0
2004,2004,Del Amo & Fordyce SW,,33.846544,-118.223985,,,0
2005,2005,Del Amo & Wilmington NW,,33.84691,-118.234671,,,0
2006,2006,Del Amo & Wilmington SW,,33.846621,-118.23513,,,0
2007,2007,Del Amo & Alvo NW,,33.846926,-118.23895,,,0
2008,2008,Del Amo & Alvo SE,,33.846706,-118.238422,,,0
2009,2009,Del Amo & Tajauta NW,,33.846922,-118.244002,,,0
2010,2010,Del Amo & Tajauta SE,,33.846702,-118.24347,,,0
2011,2011,Del Amo & Central NW,,33.846911,-118.248876,,,0
2012,2012,Del Amo & Central SE,,33.846666,-118.248261,,,0
2013,2013,Del Amo & Tillman NW,,33.846864,-118.25376,,,0
2014,2014,Del Amo & Tillman SE,,33.846681,-118.253213,,,0
2015,2015,Del Amo & Leapwood NW,,33.8469,-118.259014,,,0
2016,2016,Del Amo & Leapwood SE,,33.84667,-118.258494,,,0
2017,2017,Avalon & Del Amo NE,,33.84835,-118.264681,,,0
2018,2018,Del Amo & Avalon SE,,33.847369,-118.263715,,,0
2019,2019,Avalon & Elsmere NE,,33.853571,-118.265358,,,0
2020,2020,Avalon & Elsmere NW,,33.853434,-118.26571,,,0
2021,2021,Avalon & 189th NE,,33.859266,-118.265957,,,0
2022,2022,Avalon & 189th SW,,33.858659,-118.266298,,,0
2023,2023,Avalon & 184th NE,,33.863347,-118.265945,,,0
2024,2024,Avalon & 184th SW,,33.862833,-118.266333,,,0
2025,2025,Victoria & Avalon SE,,33.866884,-118.265722,,,0
2026,2026,Avalon & Victoria SW,,33.866706,-118.266362,,,0
2027,2027,Victoria & Rainsbury SW,,33.86702,-118.261273,,,0
2028,2028,Victoria & Rainsbury NW,,33.867224,-118.261416,,,0
2030,2030,Victoria & Tamcliff NW,,33.867336,-118.257773,,,0
2031,2031,DEL AMO & OREGON SW,,33.846538,-118.200443,,,0
2032,2032,CARSON & WALMART TOWNE CENTER SE,,33.831223,-118.089633,,,0
2035,2035,Carson & Arnold Center NW,,33.831844,-118.230744,,,0
2036,2036,Carson & Arnold Center SE,,33.831656,-118.2303,,,0
2037,2037,Carson & Wilmington NW,,33.831867,-118.239949,,,0
2038,2038,Carson & Wilmington SW,,33.83161,-118.239857,,,0
2039,2039,Carson & Martin NW,,33.831832,-118.244378,,,0
2040,2040,Carson & Martin SE,,33.831617,-118.243855,,,0
2041,2041,Carson & Vera NW,,33.831824,-118.248896,,,0
2042,2042,Carson & Vera SE,,33.831618,-118.248196,,,0
2043,2043,Carson & Perry NW,,33.831801,-118.253073,,,0
2044,2044,Carson & Acarus SE,,33.831597,-118.25081,,,0
2045,2045,Carson & Civic Center NW,,33.831786,-118.259637,,,0
2046,2046,Carson & Bonita SE,,33.831569,-118.259051,,,0
2047,2047,Carson & Avalon NW,,33.831767,-118.264071,,,0
2048,2048,Carson & Avalon SE,,33.831538,-118.263483,,,0
2049,2049,Carson & Grace NW,,33.831753,-118.26827,,,0
2050,2050,Carson & Grace SE,,33.831541,-118.26774,,,0
2051,2051,Carson & Dolores NE,,33.831743,-118.272286,,,0
2052,2052,Carson & Dolores SE,,33.831526,-118.272093,,,0
2053,2053,Carson & Orrick NW,,33.83171,-118.274663,,,0
2054,2054,Carson & Main SE,,33.831517,-118.277639,,,0
2055,2055,Carson & Main NW,,33.831723,-118.278351,,,0
2056,2056,Carson & Moneta SE,,33.831535,-118.281524,,,0
2057,2057,Carson & Moneta NW,,33.831721,-118.281965,,,0
2058,2058,Carson & Figueroa SE,,33.831539,-118.285811,,,0
2059,2059,Carson & Figueroa NW,,33.831651,-118.286403,,,0
2062,2062,Carson & Vermont SE,,33.831564,-118.290035,,,0
2071,2071,Carson & Vermont NE,,33.83167,-118.289984,,,0
2073,2073,Victoria & Tamcliff SE,,33.867135,-118.257209,,,0
2074,2074,Victoria & Birchknoll NW,,33.867475,-118.252573,,,0
2075,2075,Victoria & Birchknoll SE,,33.867295,-118.252046,,,0
2076,2076,Victoria & Cedar Bluff SW,,33.867161,-118.255413,,,0
2147,2147,PCH & SANTA FE SE,,33.789793,-118.215111,,,0
2201,2201,DOWNEY & JEFFERSON SE,,33.892524,-118.151293,,,0
2202,2202,DOWNEY & MADISON NW,,33.891207,-118.15153,,,0
2203,2203,DOWNEY & SOMERSET NE,,33.896708,-118.151333,,,0
2204,2204,DOWNEY & ALONDRA SW,,33.88787,-118.151552,,,0
2205,2205,DOWNEY & CONTRERAS SE,,33.900869,-118.151365,,,0
2206,2206,DOWNEY & JACKSON SW,,33.885215,-118.151438,,,0
2207,2207,DOWNEY & ROSECRANS SE,,33.903452,-118.151371,,,0
2209,2209,DOWNEY & CENTURY NE,,33.90707,-118.151441,,,0
2213,2213,DOWNEY & SOMERSET RANCH NE,,33.913463,-118.152336,,,0
2214,2214,IMPERIAL & LAKEWOOD NW,,33.917136,-118.137967,,,0
2215,2215,GARDENDALE & DOWNEY SE,,33.914736,-118.151531,,,0
2216,2216,IMPERIAL & BARLIN NW,,33.91821,-118.140625,,,0
2217,2217,GARDENDALE & SOMERSET RANCH SW,,33.913597,-118.149144,,,0
2218,2218,IMPERIAL & BROOKSHIRE NW,,33.92005,-118.143964,,,0
2219,2219,GARDENDALE & BARLIN SE,,33.911786,-118.14527,,,0
2220,2220,DOWNEY & IMPERIAL SW,,33.921296,-118.146988,,,0
2221,2221,PCH & 7th NE,,33.775543,-118.122761,,,0
2222,2222,DOWNEY & GARDENDALE NW,,33.914961,-118.151734,,,0
2223,2223,DOWNEY & ALONDRA SE,,33.888118,-118.151228,,,0
2224,2224,DOWNEY & SOMERSET RANCH NW,,33.913308,-118.152495,,,0
2228,2228,DOWNEY & KLONDIKE SW,,33.908985,-118.151855,,,0
2229,2229,DOWNEY AT ROSECRANS NW,,33.90411,-118.151565,,,0
2232,2232,DOWNEY & 2nd NW,,33.898415,-118.151564,,,0
2234,2234,DOWNEY AND SOMERSET SW,,33.896166,-118.151547,,,0
2299,2299,Lakewood Blvd Station - East,,33.913138,-118.140387,,,0
2301,2301,WARDLOW & MAGNOLIA NE,,33.819081,-118.197824,,,0
2384,2384,Ocean & Loma NW,,33.76097,-118.151091,,,0
2385,2385,Artesia & Long Beach NE,,33.874392,-118.202552,,,0
2401,2401,ARTESIA & ACACIA SE,,33.874456,-118.224266,,,0
2402,2402,ARTESIA & SANTA FE SE,,33.874126,-118.213958,,,0
2403,2403,L.B. BLVD. & CAMBRIDGE NE,,33.865881,-118.200142,,,0
2404,2404,L.B. BLVD. & HARCOURT NE,,33.867565,-118.20065,,,0
2406,2406,L.B. BLVD. & BORT NE,,33.870723,-118.201544,,,0
2407,2407,ARTESIA & L.B. BLVD. NW,,33.874403,-118.203216,,,0
2408,2408,ARTESIA & HARBOR NW,,33.874412,-118.207521,,,0
2409,2409,ARTESIA & SANTA FE NE,,33.874375,-118.214464,,,0
2410,2410,ACACIA & ARTESIA NE,,33.874807,-118.224785,,,0
2411,2411,ACACIA & WALNUT SW,,33.876206,-118.224948,,,0
2412,2412,QUEENSWAY DR. & STATE UNIV S,,33.763679,-118.201321,,,0
2413,2413,GOLDEN & SEASIDE NE,,33.766215,-118.201694,,,0
2414,2414,OCEAN & GOLDEN SE,,33.767227,-118.201272,,,0
2415,2415,PACIFIC & OCEAN NE,,33.767307,-118.193618,,,0
2423,2423,Ocean & Long Beach NW,,33.767029,-118.189957,,,0
2424,2424,OCEAN & PINE NE,,33.767153,-118.192109,,,0
2427,2427,GOLDEN & OCEAN SW,,33.767015,-118.202015,,,0
2429,2429,3RD & PROMENADE NW,,33.770576,-118.191532,,,0
2434,2434,PINE & THE PASEO SW,,33.765557,-118.192424,,,0
2435,2435,PINE & CONVENTION CTR SE,,33.764252,-118.192296,,,0
2436,2436,PINE & SEASIDE NE,,33.765951,-118.192323,,,0
2444,2444,6TH & PINE SE,,33.774114,-118.192181,,,0
2448,2448,LONG BEACH BLVD & 1ST SW,,33.76788,-118.189548,,,0
2449,2449,WARDLOW & PACIFIC SW,,33.818909,-118.193995,,,0
2450,2450,WARDLOW & L.B. BLVD SE,,33.818881,-118.188945,,,0
2451,2451,WARDLOW & ATLANTIC SE,,33.818847,-118.18474,,,0
2452,2452,WARDLOW & CALIFORNIA SW,,33.818845,-118.180488,,,0
2454,2454,WARDLOW & ORANGE SE,,33.818851,-118.176607,,,0
2456,2456,WARDLOW & WALNUT SE,,33.818893,-118.171721,,,0
2458,2458,SPRING & CHERRY SE,,33.811602,-118.166959,,,0
2459,2459,SPRING & JUNIPERO SW,,33.811593,-118.163539,,,0
2460,2460,SPRING & TEMPLE SE,,33.811443,-118.158667,,,0
2461,2461,SPRING & REDONDO SW,,33.810518,-118.151538,,,0
2463,2463,REDONDO & HILL SW,,33.796938,-118.151495,,,0
2464,2464,REDONDO & WILLOW SW,,33.804185,-118.151412,,,0
2465,2465,REDONDO & BURNETT SW,,33.801285,-118.151465,,,0
2469,2469,REDONDO & PCH NW,,33.790153,-118.151962,,,0
2470,2470,REDONDO & 15TH ST SW,,33.785597,-118.15252,,,0
2471,2471,REDONDO & ANAHEIM ST NW,,33.783298,-118.152487,,,0
2472,2472,REDONDO & ANAHEIM ST SW,,33.781274,-118.152535,,,0
2473,2473,REDONDO & 10TH ST NW,,33.779271,-118.152505,,,0
2474,2474,REDONDO & 8TH ST SW,,33.777065,-118.152504,,,0
2475,2475,REDONDO & 7TH ST SW,,33.77491,-118.152507,,,0
2477,2477,REDONDO & 4TH ST SW,,33.771539,-118.152521,,,0
2478,2478,REDONDO & HILL SE,,33.797036,-118.151346,,,0
2479,2479,REDONDO & 3RD ST NW,,33.768354,-118.152512,,,0
2481,2481,REDONDO & BROADWAY NW,,33.764741,-118.152531,,,0
2482,2482,REDONDO & BROADWAY NE,,33.764675,-118.152357,,,0
2484,2484,REDONDO & 3RD ST NE,,33.76828,-118.152386,,,0
2486,2486,REDONDO & 4TH ST NE,,33.772117,-118.152354,,,0
2488,2488,REDONDO & 7TH ST NE,,33.775608,-118.152347,,,0
2489,2489,REDONDO & 8TH ST NE,,33.777293,-118.152353,,,0
2490,2490,REDONDO & 10TH ST NE,,33.779139,-118.152376,,,0
2491,2491,REDONDO & 11TH ST NE,,33.781563,-118.152361,,,0
2492,2492,REDONDO & ANAHEIM NE,,33.782964,-118.152354,,,0
2493,2493,REDONDO & 15TH ST NE,,33.785943,-118.152346,,,0
2494,2494,REDONDO & P.C.H. NE,,33.790189,-118.151755,,,0
2496,2496,REDONDO & HATHWAY SE,,33.794721,-118.151487,,,0
2498,2498,REDONDO & BURNETT SE,,33.801359,-118.151321,,,0
2499,2499,SPRING & REDONDO NW,,33.810712,-118.151782,,,0
2500,2500,SPRING & TEMPLE NE,,33.811693,-118.158641,,,0
2501,2501,SPRING & FREEWAY ACCESS NW,,33.811755,-118.165241,,,0
2502,2502,WARDLOW & CHERRY NW,,33.81898,-118.168406,,,0
2504,2504,WARDLOW & WALNUT NW,,33.818983,-118.172287,,,0
2506,2506,WARDLOW & ORANGE NW,,33.818982,-118.176682,,,0
2508,2508,WARDLOW & CALIFORNIA NE,,33.818976,-118.180564,,,0
2509,2509,WARDLOW & ATLANTIC NW,,33.818968,-118.185916,,,0
2510,2510,WARDLOW & L.B. BLVD NW,,33.818942,-118.189087,,,0
2511,2511,WARDLOW & PACIFIC NE,,33.819069,-118.193564,,,0
2520,2520,SOUTH & MED CENTER S,,33.860105,-118.153522,,,0
2522,2522,SOUTH & ACROSS MED CTR N,,33.860302,-118.154168,,,0
2530,2530,BROADWAY & CEDAR SE,,33.76924,-118.194735,,,0
2600,2600,MCHELEN & WARDLOW NW,,33.82463,-118.222375,,,0
2700,2700,ARTESIA & L.B. BLVD SE,,33.87419,-118.202214,,,0
2701,2701,ARTESIA & BUTLER SE,,33.874179,-118.196813,,,0
2791,2791,ATLANTIC & 33RD NW,,33.817143,-118.185088,,,0
2827,2827,PARAMOUNT & ALL AMERICA CITY,,33.900998,-118.160285,,,0
2828,2828,ALONDRA & VERMONT SE,,33.889054,-118.162635,,,0
2829,2829,PARAMOUNT & ALONDRA NW,,33.88947,-118.159964,,,0
2830,2830,ALONDRA & VERMONT NE,,33.889235,-118.163038,,,0
2831,2831,PARAMOUNT & MADISON SE,,33.891043,-118.159991,,,0
2832,2832,PARAMOUNT & MADISON SW,,33.890848,-118.160229,,,0
2833,2833,PARAMOUNT & ADAMS NE,,33.895032,-118.160026,,,0
2834,2834,PARAMOUNT & JEFFERSON NW,,33.893046,-118.16023,,,0
2835,2835,PARAMOUNT & SOMERSET NE,,33.896915,-118.160039,,,0
2836,2836,PARAMOUNT & SOMERSET SW,,33.895927,-118.16025,,,0
2837,2837,PARAMOUNT & 3RD NE,,33.899343,-118.160056,,,0
2838,2838,PARAMOUNT & 3RD SW,,33.898826,-118.160267,,,0
2839,2839,LAKEWOOD & ROSECRANS SW,,33.903382,-118.143055,,,0
2840,2840,ROSECRANS & RR-XING SE,,33.903567,-118.163888,,,0
2841,2841,ROSECRANS & RR-XING NW,,33.903844,-118.163991,,,0
2842,2842,ROSECRANS & PARAMOUNT SW,,33.903575,-118.1608,,,0
2843,2843,ROSECRANS & PARAMOUNT NW,,33.903774,-118.16076,,,0
2844,2844,ROSECRANS & ANDERSON SE,,33.903605,-118.155429,,,0
2845,2845,ROSECRANS & ANDERSON NE,,33.903801,-118.155432,,,0
2846,2846,ROSECRANS & DOWNEY SE,,33.903632,-118.151152,,,0
2847,2847,ROSECRANS & DOWNEY NW,,33.903821,-118.15175,,,0
2848,2848,ROSECRANS & CASTANA SE,,33.903668,-118.146232,,,0
2849,2849,ROSECRANS & CASTANA NE,,33.903848,-118.146747,,,0
2851,2851,LAKEWOOD & CENTURY NW,,33.90257,-118.143032,,,0
2998,2998,SHORELINE & PINE SE,,33.762724,-118.19247,,,0
3003,3003,ATLANTIC & BROADWAY NE,,33.769457,-118.184978,,,0
3007,3007,GOLDEN & 4TH SE,,33.771609,-118.201782,,,0
3013,3013,CANDLEWOOD & LAKEWOOD NW,,33.853861,-118.143014,,,0
3014,3014,CANDLEWOOD & HAYTER NE,,33.853852,-118.145945,,,0
3016,3016,LAKEWOOD & SOUTH SW,,33.859451,-118.142674,,,0
3017,3017,LAKEWOOD & MICHELSON SW,,33.857241,-118.142638,,,0
3026,3026,MARWICK & STEARNS SE,,33.796144,-118.12201,,,0
